$GPGGA,132345.000,4137.1024,N,00024.0823,E,1,00,,0279.1,M,0.0,M,,0000*74
$GPRMC,132345.000,A,4137.1024,N,00024.0823,E,000.67,0.0,160410,,,E*52
$GPGGA,132346.000,4137.1031,N,00024.0839,E,1,00,,0276.8,M,0.0,M,,0000*7E
$GPRMC,132346.000,A,4137.1031,N,00024.0839,E,000.75,0.0,160410,,,E*5D
$GPGGA,132347.000,4137.0995,N,00024.0756,E,1,00,,0283.9,M,0.0,M,,0000*74
$GPRMC,132347.000,A,4137.0995,N,00024.0756,E,000.93,0.0,160410,,,E*54
$GPGGA,132348.000,4137.0985,N,00024.0738,E,1,00,,0285.2,M,0.0,M,,0000*7F
$GPRMC,132348.000,A,4137.0985,N,00024.0738,E,000.58,0.0,160410,,,E*55
$GPGGA,132349.000,4137.0992,N,00024.0779,E,1,00,,0278.6,M,0.0,M,,0000*7B
$GPRMC,132349.000,A,4137.0992,N,00024.0779,E,000.82,0.0,160410,,,E*50
$GPGGA,132350.000,4137.0983,N,00024.0769,E,1,00,,0281.6,M,0.0,M,,0000*74
$GPRMC,132350.000,A,4137.0983,N,00024.0769,E,000.75,0.0,160410,,,E*51
$GPGGA,132351.000,4137.0985,N,00024.0787,E,1,00,,0281.5,M,0.0,M,,0000*70
$GPRMC,132351.000,A,4137.0985,N,00024.0787,E,000.59,0.0,160410,,,E*58
$GPGGA,132352.000,4137.0983,N,00024.0800,E,1,00,,0282.5,M,0.0,M,,0000*76
$GPRMC,132352.000,A,4137.0983,N,00024.0800,E,000.00,0.0,160410,,,E*51
$GPGGA,132353.000,4137.0981,N,00024.0805,E,1,00,,0283.8,M,0.0,M,,0000*7C
$GPRMC,132353.000,A,4137.0981,N,00024.0805,E,000.00,0.0,160410,,,E*57
$GPGGA,132354.000,4137.0981,N,00024.0813,E,1,00,,0283.3,M,0.0,M,,0000*77
$GPRMC,132354.000,A,4137.0981,N,00024.0813,E,000.00,0.0,160410,,,E*57
$GPGGA,132355.000,4137.0976,N,00024.0808,E,1,00,,0285.0,M,0.0,M,,0000*71
$GPRMC,132355.000,A,4137.0976,N,00024.0808,E,000.00,0.0,160410,,,E*54
$GPGGA,132356.000,4137.0979,N,00024.0815,E,1,00,,0284.9,M,0.0,M,,0000*79
$GPRMC,132356.000,A,4137.0979,N,00024.0815,E,000.00,0.0,160410,,,E*54
$GPGGA,132357.000,4137.0974,N,00024.0818,E,1,00,,0287.3,M,0.0,M,,0000*71
$GPRMC,132357.000,A,4137.0974,N,00024.0818,E,000.00,0.0,160410,,,E*55
$GPGGA,132358.000,4137.0976,N,00024.0822,E,1,00,,0289.0,M,0.0,M,,0000*78
$GPRMC,132358.000,A,4137.0976,N,00024.0822,E,000.00,0.0,160410,,,E*51
$GPGGA,132359.000,4137.0976,N,00024.0818,E,1,00,,0288.8,M,0.0,M,,0000*79
$GPRMC,132359.000,A,4137.0976,N,00024.0818,E,000.00,0.0,160410,,,E*59
$GPGGA,132400.000,4137.0979,N,00024.0821,E,1,00,,0288.9,M,0.0,M,,0000*76
$GPRMC,132400.000,A,4137.0979,N,00024.0821,E,000.70,0.0,160410,,,E*50
$GPGGA,132401.000,4137.0976,N,00024.0825,E,1,00,,0288.8,M,0.0,M,,0000*7D
$GPRMC,132401.000,A,4137.0976,N,00024.0825,E,000.72,0.0,160410,,,E*58
$GPGGA,132402.000,4137.0972,N,00024.0830,E,1,00,,0287.5,M,0.0,M,,0000*7C
$GPRMC,132402.000,A,4137.0972,N,00024.0830,E,000.87,0.0,160410,,,E*51
$GPGGA,132403.000,4137.0969,N,00024.0825,E,1,00,,0287.9,M,0.0,M,,0000*7F
$GPRMC,132403.000,A,4137.0969,N,00024.0825,E,000.84,0.0,160410,,,E*5D
$GPGGA,132404.000,4137.0967,N,00024.0823,E,1,00,,0287.8,M,0.0,M,,0000*71
$GPRMC,132404.000,A,4137.0967,N,00024.0823,E,000.77,0.0,160410,,,E*5E
$GPGGA,132405.000,4137.0965,N,00024.0816,E,1,00,,0286.9,M,0.0,M,,0000*74
$GPRMC,132405.000,A,4137.0965,N,00024.0816,E,000.00,0.0,160410,,,E*5B
$GPGGA,132406.000,4137.0965,N,00024.0813,E,1,00,,0286.2,M,0.0,M,,0000*79
$GPRMC,132406.000,A,4137.0965,N,00024.0813,E,000.00,0.0,160410,,,E*5D
$GPGGA,132407.000,4137.0960,N,00024.0804,E,1,00,,0288.1,M,0.0,M,,0000*76
$GPRMC,132407.000,A,4137.0960,N,00024.0804,E,000.00,0.0,160410,,,E*5F
$GPGGA,132408.000,4137.0958,N,00024.0814,E,1,00,,0289.0,M,0.0,M,,0000*73
$GPRMC,132408.000,A,4137.0958,N,00024.0814,E,000.00,0.0,160410,,,E*5A
$GPGGA,132409.000,4137.0956,N,00024.0817,E,1,00,,0289.9,M,0.0,M,,0000*76
$GPRMC,132409.000,A,4137.0956,N,00024.0817,E,000.00,0.0,160410,,,E*56
$GPGGA,132410.000,4137.0956,N,00024.0818,E,1,00,,0290.2,M,0.0,M,,0000*72
$GPRMC,132410.000,A,4137.0956,N,00024.0818,E,000.00,0.0,160410,,,E*51
$GPGGA,132411.000,4137.0953,N,00024.0819,E,1,00,,0291.1,M,0.0,M,,0000*75
$GPRMC,132411.000,A,4137.0953,N,00024.0819,E,000.69,0.0,160410,,,E*5B
$GPGGA,132412.000,4137.0953,N,00024.0819,E,1,00,,0291.4,M,0.0,M,,0000*73
$GPRMC,132412.000,A,4137.0953,N,00024.0819,E,000.80,0.0,160410,,,E*5F
$GPGGA,132413.000,4137.0953,N,00024.0820,E,1,00,,0292.4,M,0.0,M,,0000*7B
$GPRMC,132413.000,A,4137.0953,N,00024.0820,E,000.77,0.0,160410,,,E*5C
$GPGGA,132414.000,4137.0958,N,00024.0818,E,1,00,,0291.4,M,0.0,M,,0000*7F
$GPRMC,132414.000,A,4137.0958,N,00024.0818,E,000.58,0.0,160410,,,E*56
$GPGGA,132415.000,4137.0958,N,00024.0822,E,1,00,,0292.2,M,0.0,M,,0000*72
$GPRMC,132415.000,A,4137.0958,N,00024.0822,E,000.00,0.0,160410,,,E*53
$GPGGA,132416.000,4137.0958,N,00024.0826,E,1,00,,0292.4,M,0.0,M,,0000*73
$GPRMC,132416.000,A,4137.0958,N,00024.0826,E,000.62,0.0,160410,,,E*50
$GPGGA,132417.000,4137.0958,N,00024.0825,E,1,00,,0293.4,M,0.0,M,,0000*70
$GPRMC,132417.000,A,4137.0958,N,00024.0825,E,000.76,0.0,160410,,,E*57
$GPGGA,132418.000,4137.0967,N,00024.0818,E,1,00,,0292.5,M,0.0,M,,0000*7D
$GPRMC,132418.000,A,4137.0967,N,00024.0818,E,000.73,0.0,160410,,,E*5F
$GPGGA,132419.000,4137.0974,N,00024.0811,E,1,00,,0292.0,M,0.0,M,,0000*72
$GPRMC,132419.000,A,4137.0974,N,00024.0811,E,000.64,0.0,160410,,,E*53
$GPGGA,132420.000,4137.0981,N,00024.0805,E,1,00,,0291.7,M,0.0,M,,0000*73
$GPRMC,132420.000,A,4137.0981,N,00024.0805,E,000.59,0.0,160410,,,E*58
$GPGGA,132421.000,4137.0983,N,00024.0802,E,1,00,,0290.1,M,0.0,M,,0000*70
$GPRMC,132421.000,A,4137.0983,N,00024.0802,E,000.00,0.0,160410,,,E*50
$GPGGA,132422.000,4137.0983,N,00024.0802,E,1,00,,0289.3,M,0.0,M,,0000*79
$GPRMC,132422.000,A,4137.0983,N,00024.0802,E,000.00,0.0,160410,,,E*53
$GPGGA,132423.000,4137.0983,N,00024.0803,E,1,00,,0289.6,M,0.0,M,,0000*7C
$GPRMC,132423.000,A,4137.0983,N,00024.0803,E,000.00,0.0,160410,,,E*53
$GPGGA,132424.000,4137.0983,N,00024.0804,E,1,00,,0289.9,M,0.0,M,,0000*73
$GPRMC,132424.000,A,4137.0983,N,00024.0804,E,000.00,0.0,160410,,,E*53
$GPGGA,132425.000,4137.0983,N,00024.0804,E,1,00,,0290.2,M,0.0,M,,0000*71
$GPRMC,132425.000,A,4137.0983,N,00024.0804,E,000.00,0.0,160410,,,E*52
$GPGGA,132426.000,4137.0983,N,00024.0804,E,1,00,,0290.4,M,0.0,M,,0000*74
$GPRMC,132426.000,A,4137.0983,N,00024.0804,E,000.00,0.0,160410,,,E*51
$GPGGA,132427.000,4137.0983,N,00024.0804,E,1,00,,0290.5,M,0.0,M,,0000*74
$GPRMC,132427.000,A,4137.0983,N,00024.0804,E,000.00,0.0,160410,,,E*50
$GPGGA,132428.000,4137.0983,N,00024.0805,E,1,00,,0290.7,M,0.0,M,,0000*78
$GPRMC,132428.000,A,4137.0983,N,00024.0805,E,000.00,0.0,160410,,,E*5E
$GPGGA,132429.000,4137.0983,N,00024.0803,E,1,00,,0290.9,M,0.0,M,,0000*71
$GPRMC,132429.000,A,4137.0983,N,00024.0803,E,000.00,0.0,160410,,,E*59
$GPGGA,132430.000,4137.0985,N,00024.0799,E,1,00,,0289.2,M,0.0,M,,0000*70
$GPRMC,132430.000,A,4137.0985,N,00024.0799,E,000.00,0.0,160410,,,E*5B
$GPGGA,132431.000,4137.0988,N,00024.0799,E,1,00,,0289.2,M,0.0,M,,0000*7C
$GPRMC,132431.000,A,4137.0988,N,00024.0799,E,000.00,0.0,160410,,,E*57
$GPGGA,132432.000,4137.0988,N,00024.0798,E,1,00,,0288.6,M,0.0,M,,0000*7B
$GPRMC,132432.000,A,4137.0988,N,00024.0798,E,000.00,0.0,160410,,,E*55
$GPGGA,132433.000,4137.0988,N,00024.0797,E,1,00,,0287.3,M,0.0,M,,0000*7F
$GPRMC,132433.000,A,4137.0988,N,00024.0797,E,000.00,0.0,160410,,,E*5B
$GPGGA,132434.000,4137.0988,N,00024.0796,E,1,00,,0286.5,M,0.0,M,,0000*7E
$GPRMC,132434.000,A,4137.0988,N,00024.0796,E,000.00,0.0,160410,,,E*5D
$GPGGA,132435.000,4137.0990,N,00024.0796,E,1,00,,0284.9,M,0.0,M,,0000*78
$GPRMC,132435.000,A,4137.0990,N,00024.0796,E,000.00,0.0,160410,,,E*55
$GPGGA,132436.000,4137.0990,N,00024.0795,E,1,00,,0283.7,M,0.0,M,,0000*71
$GPRMC,132436.000,A,4137.0990,N,00024.0795,E,000.00,0.0,160410,,,E*55
$GPGGA,132437.000,4137.0992,N,00024.0795,E,1,00,,0282.7,M,0.0,M,,0000*73
$GPRMC,132437.000,A,4137.0992,N,00024.0795,E,000.00,0.0,160410,,,E*56
$GPGGA,132438.000,4137.0995,N,00024.0796,E,1,00,,0281.5,M,0.0,M,,0000*79
$GPRMC,132438.000,A,4137.0995,N,00024.0796,E,000.00,0.0,160410,,,E*5D
$GPGGA,132439.000,4137.0995,N,00024.0797,E,1,00,,0281.4,M,0.0,M,,0000*78
$GPRMC,132439.000,A,4137.0995,N,00024.0797,E,000.00,0.0,160410,,,E*5D
$GPGGA,132440.000,4137.1001,N,00024.0798,E,1,00,,0278.6,M,0.0,M,,0000*78
$GPRMC,132440.000,A,4137.1001,N,00024.0798,E,000.72,0.0,160410,,,E*5C
$GPGGA,132441.000,4137.1001,N,00024.0800,E,1,00,,0278.5,M,0.0,M,,0000*74
$GPRMC,132441.000,A,4137.1001,N,00024.0800,E,000.89,0.0,160410,,,E*57
$GPGGA,132442.000,4137.1008,N,00024.0801,E,1,00,,0277.1,M,0.0,M,,0000*74
$GPRMC,132442.000,A,4137.1008,N,00024.0801,E,000.98,0.0,160410,,,E*5C
$GPGGA,132443.000,4137.1011,N,00024.0800,E,1,00,,0276.1,M,0.0,M,,0000*7D
$GPRMC,132443.000,A,4137.1011,N,00024.0800,E,000.72,0.0,160410,,,E*50
$GPGGA,132444.000,4137.1013,N,00024.0798,E,1,00,,0275.2,M,0.0,M,,0000*76
$GPRMC,132444.000,A,4137.1013,N,00024.0798,E,000.59,0.0,160410,,,E*52
$GPGGA,132445.000,4137.1015,N,00024.0801,E,1,00,,0275.4,M,0.0,M,,0000*78
$GPRMC,132445.000,A,4137.1015,N,00024.0801,E,000.00,0.0,160410,,,E*56
$GPGGA,132446.000,4137.1017,N,00024.0799,E,1,00,,0274.8,M,0.0,M,,0000*7A
$GPRMC,132446.000,A,4137.1017,N,00024.0799,E,000.58,0.0,160410,,,E*54
$GPGGA,132447.000,4137.1017,N,00024.0797,E,1,00,,0274.3,M,0.0,M,,0000*7E
$GPRMC,132447.000,A,4137.1017,N,00024.0797,E,000.00,0.0,160410,,,E*56
$GPGGA,132448.000,4137.1017,N,00024.0792,E,1,00,,0272.6,M,0.0,M,,0000*77
$GPRMC,132448.000,A,4137.1017,N,00024.0792,E,000.00,0.0,160410,,,E*5C
$GPGGA,132449.000,4137.1015,N,00024.0784,E,1,00,,0271.8,M,0.0,M,,0000*7E
$GPRMC,132449.000,A,4137.1015,N,00024.0784,E,000.00,0.0,160410,,,E*58
$GPGGA,132450.000,4137.1008,N,00024.0781,E,1,00,,0272.7,M,0.0,M,,0000*73
$GPRMC,132450.000,A,4137.1008,N,00024.0781,E,000.00,0.0,160410,,,E*59
$GPGGA,132451.000,4137.1004,N,00024.0782,E,1,00,,0273.3,M,0.0,M,,0000*78
$GPRMC,132451.000,A,4137.1004,N,00024.0782,E,000.00,0.0,160410,,,E*57
$GPGGA,132452.000,4137.0999,N,00024.0780,E,1,00,,0274.6,M,0.0,M,,0000*77
$GPRMC,132452.000,A,4137.0999,N,00024.0780,E,000.00,0.0,160410,,,E*5A
$GPGGA,132453.000,4137.0992,N,00024.0780,E,1,00,,0276.0,M,0.0,M,,0000*79
$GPRMC,132453.000,A,4137.0992,N,00024.0780,E,000.00,0.0,160410,,,E*50
$GPGGA,132454.000,4137.0990,N,00024.0780,E,1,00,,0277.9,M,0.0,M,,0000*74
$GPRMC,132454.000,A,4137.0990,N,00024.0780,E,000.00,0.0,160410,,,E*55
$GPGGA,132455.000,4137.0983,N,00024.0777,E,1,00,,0279.3,M,0.0,M,,0000*7B
$GPRMC,132455.000,A,4137.0983,N,00024.0777,E,000.00,0.0,160410,,,E*5E
$GPGGA,132456.000,4137.0979,N,00024.0775,E,1,00,,0280.7,M,0.0,M,,0000*7D
$GPRMC,132456.000,A,4137.0979,N,00024.0775,E,000.00,0.0,160410,,,E*5A
$GPGGA,132457.000,4137.0976,N,00024.0778,E,1,00,,0281.6,M,0.0,M,,0000*7E
$GPRMC,132457.000,A,4137.0976,N,00024.0778,E,000.00,0.0,160410,,,E*59
$GPGGA,132458.000,4137.0972,N,00024.0776,E,1,00,,0283.3,M,0.0,M,,0000*7C
$GPRMC,132458.000,A,4137.0972,N,00024.0776,E,000.00,0.0,160410,,,E*5C
$GPGGA,132459.000,4137.0969,N,00024.0779,E,1,00,,0284.4,M,0.0,M,,0000*78
$GPRMC,132459.000,A,4137.0969,N,00024.0779,E,000.00,0.0,160410,,,E*58
$GPGGA,132500.000,4137.0965,N,00024.0778,E,1,00,,0285.5,M,0.0,M,,0000*78
$GPRMC,132500.000,A,4137.0965,N,00024.0778,E,000.00,0.0,160410,,,E*58
$GPGGA,132501.000,4137.0963,N,00024.0775,E,1,00,,0285.9,M,0.0,M,,0000*7E
$GPRMC,132501.000,A,4137.0963,N,00024.0775,E,000.62,0.0,160410,,,E*56
$GPGGA,132502.000,4137.0960,N,00024.0774,E,1,00,,0287.1,M,0.0,M,,0000*75
$GPRMC,132502.000,A,4137.0960,N,00024.0774,E,000.64,0.0,160410,,,E*51
$GPGGA,132503.000,4137.0958,N,00024.0772,E,1,00,,0287.6,M,0.0,M,,0000*7E
$GPRMC,132503.000,A,4137.0958,N,00024.0772,E,000.61,0.0,160410,,,E*58
$GPGGA,132504.000,4137.0956,N,00024.0770,E,1,00,,0288.0,M,0.0,M,,0000*7C
$GPRMC,132504.000,A,4137.0956,N,00024.0770,E,000.00,0.0,160410,,,E*54
$GPGGA,132505.000,4137.0956,N,00024.0767,E,1,00,,0288.1,M,0.0,M,,0000*7A
$GPRMC,132505.000,A,4137.0956,N,00024.0767,E,000.00,0.0,160410,,,E*53
$GPGGA,132506.000,4137.0953,N,00024.0767,E,1,00,,0288.4,M,0.0,M,,0000*79
$GPRMC,132506.000,A,4137.0953,N,00024.0767,E,000.00,0.0,160410,,,E*55
$GPGGA,132507.000,4137.0953,N,00024.0766,E,1,00,,0288.6,M,0.0,M,,0000*7B
$GPRMC,132507.000,A,4137.0953,N,00024.0766,E,000.00,0.0,160410,,,E*55
$GPGGA,132508.000,4137.0951,N,00024.0765,E,1,00,,0288.6,M,0.0,M,,0000*75
$GPRMC,132508.000,A,4137.0951,N,00024.0765,E,000.00,0.0,160410,,,E*5B
$GPGGA,132509.000,4137.0951,N,00024.0764,E,1,00,,0288.3,M,0.0,M,,0000*70
$GPRMC,132509.000,A,4137.0951,N,00024.0764,E,000.00,0.0,160410,,,E*5B
$GPGGA,132510.000,4137.0951,N,00024.0762,E,1,00,,0288.1,M,0.0,M,,0000*7C
$GPRMC,132510.000,A,4137.0951,N,00024.0762,E,000.00,0.0,160410,,,E*55
$GPGGA,132511.000,4137.0951,N,00024.0758,E,1,00,,0287.5,M,0.0,M,,0000*7F
$GPRMC,132511.000,A,4137.0951,N,00024.0758,E,000.00,0.0,160410,,,E*5D
$GPGGA,132512.000,4137.0947,N,00024.0754,E,1,00,,0288.8,M,0.0,M,,0000*75
$GPRMC,132512.000,A,4137.0947,N,00024.0754,E,000.00,0.0,160410,,,E*55
$GPGGA,132513.000,4137.0944,N,00024.0752,E,1,00,,0289.1,M,0.0,M,,0000*79
$GPRMC,132513.000,A,4137.0944,N,00024.0752,E,000.00,0.0,160410,,,E*51
$GPGGA,132514.000,4137.0942,N,00024.0750,E,1,00,,0289.8,M,0.0,M,,0000*73
$GPRMC,132514.000,A,4137.0942,N,00024.0750,E,000.00,0.0,160410,,,E*52
$GPGGA,132515.000,4137.0942,N,00024.0751,E,1,00,,0290.1,M,0.0,M,,0000*72
$GPRMC,132515.000,A,4137.0942,N,00024.0751,E,000.00,0.0,160410,,,E*52
$GPGGA,132516.000,4137.0940,N,00024.0750,E,1,00,,0290.8,M,0.0,M,,0000*7B
$GPRMC,132516.000,A,4137.0940,N,00024.0750,E,000.00,0.0,160410,,,E*52
$GPGGA,132517.000,4137.0937,N,00024.0749,E,1,00,,0291.4,M,0.0,M,,0000*7F
$GPRMC,132517.000,A,4137.0937,N,00024.0749,E,000.00,0.0,160410,,,E*5B
$GPGGA,132518.000,4137.0935,N,00024.0747,E,1,00,,0291.6,M,0.0,M,,0000*7E
$GPRMC,132518.000,A,4137.0935,N,00024.0747,E,000.00,0.0,160410,,,E*58
$GPGGA,132519.000,4137.0933,N,00024.0746,E,1,00,,0291.8,M,0.0,M,,0000*76
$GPRMC,132519.000,A,4137.0933,N,00024.0746,E,000.00,0.0,160410,,,E*5E
$GPGGA,132520.000,4137.0933,N,00024.0745,E,1,00,,0291.8,M,0.0,M,,0000*7F
$GPRMC,132520.000,A,4137.0933,N,00024.0745,E,000.00,0.0,160410,,,E*57
$GPGGA,132521.000,4137.0933,N,00024.0744,E,1,00,,0291.8,M,0.0,M,,0000*7F
$GPRMC,132521.000,A,4137.0933,N,00024.0744,E,000.00,0.0,160410,,,E*57
$GPGGA,132522.000,4137.0930,N,00024.0743,E,1,00,,0291.8,M,0.0,M,,0000*78
$GPRMC,132522.000,A,4137.0930,N,00024.0743,E,000.00,0.0,160410,,,E*50
$GPGGA,132523.000,4137.0930,N,00024.0742,E,1,00,,0291.9,M,0.0,M,,0000*79
$GPRMC,132523.000,A,4137.0930,N,00024.0742,E,000.00,0.0,160410,,,E*50
$GPGGA,132524.000,4137.0928,N,00024.0741,E,1,00,,0291.9,M,0.0,M,,0000*74
$GPRMC,132524.000,A,4137.0928,N,00024.0741,E,000.00,0.0,160410,,,E*5D
$GPGGA,132525.000,4137.0926,N,00024.0740,E,1,00,,0292.0,M,0.0,M,,0000*70
$GPRMC,132525.000,A,4137.0926,N,00024.0740,E,000.00,0.0,160410,,,E*53
$GPGGA,132526.000,4137.0926,N,00024.0741,E,1,00,,0292.4,M,0.0,M,,0000*76
$GPRMC,132526.000,A,4137.0926,N,00024.0741,E,000.00,0.0,160410,,,E*51
$GPGGA,132527.000,4137.0928,N,00024.0745,E,1,00,,0292.9,M,0.0,M,,0000*70
$GPRMC,132527.000,A,4137.0928,N,00024.0745,E,000.00,0.0,160410,,,E*5A
$GPGGA,132528.000,4137.0930,N,00024.0750,E,1,00,,0293.3,M,0.0,M,,0000*79
$GPRMC,132528.000,A,4137.0930,N,00024.0750,E,000.00,0.0,160410,,,E*58
$GPGGA,132529.000,4137.0935,N,00024.0756,E,1,00,,0293.9,M,0.0,M,,0000*71
$GPRMC,132529.000,A,4137.0935,N,00024.0756,E,000.00,0.0,160410,,,E*5A
$GPGGA,132530.000,4137.0940,N,00024.0762,E,1,00,,0294.3,M,0.0,M,,0000*71
$GPRMC,132530.000,A,4137.0940,N,00024.0762,E,000.00,0.0,160410,,,E*57
$GPGGA,132531.000,4137.0942,N,00024.0767,E,1,00,,0294.8,M,0.0,M,,0000*7C
$GPRMC,132531.000,A,4137.0942,N,00024.0767,E,000.00,0.0,160410,,,E*51
$GPGGA,132532.000,4137.0944,N,00024.0767,E,1,00,,0294.4,M,0.0,M,,0000*75
$GPRMC,132532.000,A,4137.0944,N,00024.0767,E,000.00,0.0,160410,,,E*54
$GPGGA,132533.000,4137.0947,N,00024.0769,E,1,00,,0295.2,M,0.0,M,,0000*7E
$GPRMC,132533.000,A,4137.0947,N,00024.0769,E,000.00,0.0,160410,,,E*58
$GPGGA,132534.000,4137.0949,N,00024.0768,E,1,00,,0295.2,M,0.0,M,,0000*76
$GPRMC,132534.000,A,4137.0949,N,00024.0768,E,000.00,0.0,160410,,,E*50
$GPGGA,132535.000,4137.0953,N,00024.0767,E,1,00,,0294.9,M,0.0,M,,0000*79
$GPRMC,132535.000,A,4137.0953,N,00024.0767,E,000.00,0.0,160410,,,E*55
$GPGGA,132536.000,4137.0958,N,00024.0765,E,1,00,,0294.0,M,0.0,M,,0000*7A
$GPRMC,132536.000,A,4137.0958,N,00024.0765,E,000.00,0.0,160410,,,E*5F
$GPGGA,132537.000,4137.0963,N,00024.0766,E,1,00,,0295.0,M,0.0,M,,0000*71
$GPRMC,132537.000,A,4137.0963,N,00024.0766,E,000.00,0.0,160410,,,E*55
$GPGGA,132538.000,4137.0967,N,00024.0767,E,1,00,,0293.9,M,0.0,M,,0000*74
$GPRMC,132538.000,A,4137.0967,N,00024.0767,E,000.70,0.0,160410,,,E*58
$GPGGA,132539.000,4137.0965,N,00024.0767,E,1,00,,0294.5,M,0.0,M,,0000*7C
$GPRMC,132539.000,A,4137.0965,N,00024.0767,E,000.88,0.0,160410,,,E*5C
$GPGGA,132540.000,4137.0963,N,00024.0766,E,1,00,,0295.1,M,0.0,M,,0000*70
$GPRMC,132540.000,A,4137.0963,N,00024.0766,E,001.02,0.0,160410,,,E*56
$GPGGA,132541.000,4137.0963,N,00024.0765,E,1,00,,0295.5,M,0.0,M,,0000*76
$GPRMC,132541.000,A,4137.0963,N,00024.0765,E,001.13,0.0,160410,,,E*54
$GPGGA,132542.000,4137.0960,N,00024.0766,E,1,00,,0296.0,M,0.0,M,,0000*73
$GPRMC,132542.000,A,4137.0960,N,00024.0766,E,000.93,0.0,160410,,,E*5E
$GPGGA,132543.000,4137.0960,N,00024.0767,E,1,00,,0296.3,M,0.0,M,,0000*70
$GPRMC,132543.000,A,4137.0960,N,00024.0767,E,000.66,0.0,160410,,,E*54
$GPGGA,132544.000,4137.0958,N,00024.0770,E,1,00,,0296.6,M,0.0,M,,0000*7F
$GPRMC,132544.000,A,4137.0958,N,00024.0770,E,000.00,0.0,160410,,,E*5E
$GPGGA,132545.000,4137.0956,N,00024.0772,E,1,00,,0296.8,M,0.0,M,,0000*7C
$GPRMC,132545.000,A,4137.0956,N,00024.0772,E,000.00,0.0,160410,,,E*53
$GPGGA,132546.000,4137.0956,N,00024.0774,E,1,00,,0297.0,M,0.0,M,,0000*70
$GPRMC,132546.000,A,4137.0956,N,00024.0774,E,000.00,0.0,160410,,,E*56
$GPGGA,132547.000,4137.0953,N,00024.0776,E,1,00,,0297.1,M,0.0,M,,0000*77
$GPRMC,132547.000,A,4137.0953,N,00024.0776,E,000.00,0.0,160410,,,E*50
$GPGGA,132548.000,4137.0953,N,00024.0779,E,1,00,,0297.1,M,0.0,M,,0000*77
$GPRMC,132548.000,A,4137.0953,N,00024.0779,E,000.00,0.0,160410,,,E*50
$GPGGA,132549.000,4137.0953,N,00024.0782,E,1,00,,0297.2,M,0.0,M,,0000*71
$GPRMC,132549.000,A,4137.0953,N,00024.0782,E,000.00,0.0,160410,,,E*55
$GPGGA,132550.000,4137.0953,N,00024.0788,E,1,00,,0297.3,M,0.0,M,,0000*72
$GPRMC,132550.000,A,4137.0953,N,00024.0788,E,001.06,0.0,160410,,,E*50
$GPGGA,132551.000,4137.0960,N,00024.0797,E,1,00,,0297.2,M,0.0,M,,0000*7C
$GPRMC,132551.000,A,4137.0960,N,00024.0797,E,002.14,0.0,160410,,,E*5F
$GPGGA,132552.000,4137.0972,N,00024.0810,E,1,00,,0295.9,M,0.0,M,,0000*75
$GPRMC,132552.000,A,4137.0972,N,00024.0810,E,003.62,0.0,160410,,,E*5F
$GPGGA,132553.000,4137.0988,N,00024.0830,E,1,00,,0294.8,M,0.0,M,,0000*73
$GPRMC,132553.000,A,4137.0988,N,00024.0830,E,008.39,0.0,160410,,,E*5C
$GPGGA,132554.000,4137.1011,N,00024.0862,E,1,00,,0293.9,M,0.0,M,,0000*7D
$GPRMC,132554.000,A,4137.1011,N,00024.0862,E,013.12,0.0,160410,,,E*57
$GPGGA,132555.000,4137.1038,N,00024.0908,E,1,00,,0293.2,M,0.0,M,,0000*71
$GPRMC,132555.000,A,4137.1038,N,00024.0908,E,016.60,0.0,160410,,,E*50
$GPGGA,132556.000,4137.1068,N,00024.0970,E,1,00,,0292.6,M,0.0,M,,0000*7D
$GPRMC,132556.000,A,4137.1068,N,00024.0970,E,021.34,0.0,160410,,,E*5C
$GPGGA,132557.000,4137.1104,N,00024.1046,E,1,00,,0292.1,M,0.0,M,,0000*7D
$GPRMC,132557.000,A,4137.1104,N,00024.1046,E,025.34,0.0,160410,,,E*5F
$GPGGA,132558.000,4137.1148,N,00024.1134,E,1,00,,0291.6,M,0.0,M,,0000*7A
$GPRMC,132558.000,A,4137.1148,N,00024.1134,E,029.37,0.0,160410,,,E*53
$GPGGA,132559.000,4137.1196,N,00024.1230,E,1,00,,0291.3,M,0.0,M,,0000*7A
$GPRMC,132559.000,A,4137.1196,N,00024.1230,E,030.95,0.0,160410,,,E*56
$GPGGA,132600.000,4137.1242,N,00024.1320,E,1,00,,0291.0,M,0.0,M,,0000*7C
$GPRMC,132600.000,A,4137.1242,N,00024.1320,E,027.01,0.0,160410,,,E*58
$GPGGA,132601.000,4137.1283,N,00024.1398,E,1,00,,0290.8,M,0.0,M,,0000*7A
$GPRMC,132601.000,A,4137.1283,N,00024.1398,E,023.23,0.0,160410,,,E*53
$GPGGA,132602.000,4137.1317,N,00024.1465,E,1,00,,0290.7,M,0.0,M,,0000*7F
$GPRMC,132602.000,A,4137.1317,N,00024.1465,E,019.97,0.0,160410,,,E*5F
$GPGGA,132603.000,4137.1349,N,00024.1523,E,1,00,,0290.6,M,0.0,M,,0000*77
$GPRMC,132603.000,A,4137.1349,N,00024.1523,E,017.69,0.0,160410,,,E*59
$GPGGA,132604.000,4137.1375,N,00024.1573,E,1,00,,0290.5,M,0.0,M,,0000*79
$GPRMC,132604.000,A,4137.1375,N,00024.1573,E,015.28,0.0,160410,,,E*53
$GPGGA,132605.000,4137.1400,N,00024.1617,E,1,00,,0290.4,M,0.0,M,,0000*7D
$GPRMC,132605.000,A,4137.1400,N,00024.1617,E,013.12,0.0,160410,,,E*59
$GPGGA,132606.000,4137.1418,N,00024.1653,E,1,00,,0290.4,M,0.0,M,,0000*77
$GPRMC,132606.000,A,4137.1418,N,00024.1653,E,010.89,0.0,160410,,,E*52
$GPGGA,132607.000,4137.1434,N,00024.1683,E,1,00,,0290.4,M,0.0,M,,0000*75
$GPRMC,132607.000,A,4137.1434,N,00024.1683,E,009.17,0.0,160410,,,E*5F
$GPGGA,132608.000,4137.1450,N,00024.1708,E,1,00,,0290.3,M,0.0,M,,0000*7D
$GPRMC,132608.000,A,4137.1450,N,00024.1708,E,007.17,0.0,160410,,,E*5E
$GPGGA,132609.000,4137.1459,N,00024.1726,E,1,00,,0290.3,M,0.0,M,,0000*79
$GPRMC,132609.000,A,4137.1459,N,00024.1726,E,007.10,0.0,160410,,,E*5D
$GPGGA,132610.000,4137.1464,N,00024.1736,E,1,00,,0290.3,M,0.0,M,,0000*7E
$GPRMC,132610.000,A,4137.1464,N,00024.1736,E,004.41,0.0,160410,,,E*5D
$GPGGA,132611.000,4137.1464,N,00024.1737,E,1,00,,0290.2,M,0.0,M,,0000*7F
$GPRMC,132611.000,A,4137.1464,N,00024.1737,E,002.07,0.0,160410,,,E*59
$GPGGA,132612.000,4137.1464,N,00024.1737,E,1,00,,0290.1,M,0.0,M,,0000*7F
$GPRMC,132612.000,A,4137.1464,N,00024.1737,E,000.00,0.0,160410,,,E*5F
$GPGGA,132613.000,4137.1461,N,00024.1737,E,1,00,,0290.0,M,0.0,M,,0000*7A
$GPRMC,132613.000,A,4137.1461,N,00024.1737,E,000.00,0.0,160410,,,E*5B
$GPGGA,132614.000,4137.1461,N,00024.1737,E,1,00,,0289.9,M,0.0,M,,0000*7C
$GPRMC,132614.000,A,4137.1461,N,00024.1737,E,000.00,0.0,160410,,,E*5C
$GPGGA,132615.000,4137.1461,N,00024.1737,E,1,00,,0289.8,M,0.0,M,,0000*7C
$GPRMC,132615.000,A,4137.1461,N,00024.1737,E,000.00,0.0,160410,,,E*5D
$GPGGA,132616.000,4137.1461,N,00024.1737,E,1,00,,0289.6,M,0.0,M,,0000*71
$GPRMC,132616.000,A,4137.1461,N,00024.1737,E,000.00,0.0,160410,,,E*5E
$GPGGA,132617.000,4137.1459,N,00024.1737,E,1,00,,0289.6,M,0.0,M,,0000*7B
$GPRMC,132617.000,A,4137.1459,N,00024.1737,E,000.00,0.0,160410,,,E*54
$GPGGA,132618.000,4137.1459,N,00024.1737,E,1,00,,0289.5,M,0.0,M,,0000*77
$GPRMC,132618.000,A,4137.1459,N,00024.1737,E,000.00,0.0,160410,,,E*5B
$GPGGA,132619.000,4137.1459,N,00024.1737,E,1,00,,0289.5,M,0.0,M,,0000*76
$GPRMC,132619.000,A,4137.1459,N,00024.1737,E,000.00,0.0,160410,,,E*5A
$GPGGA,132620.000,4137.1459,N,00024.1736,E,1,00,,0289.6,M,0.0,M,,0000*7E
$GPRMC,132620.000,A,4137.1459,N,00024.1736,E,000.00,0.0,160410,,,E*51
$GPGGA,132621.000,4137.1459,N,00024.1736,E,1,00,,0289.5,M,0.0,M,,0000*7C
$GPRMC,132621.000,A,4137.1459,N,00024.1736,E,000.00,0.0,160410,,,E*50
$GPGGA,132622.000,4137.1459,N,00024.1736,E,1,00,,0289.5,M,0.0,M,,0000*7F
$GPRMC,132622.000,A,4137.1459,N,00024.1736,E,000.00,0.0,160410,,,E*53
$GPGGA,132623.000,4137.1459,N,00024.1736,E,1,00,,0289.5,M,0.0,M,,0000*7E
$GPRMC,132623.000,A,4137.1459,N,00024.1736,E,000.00,0.0,160410,,,E*52
$GPGGA,132624.000,4137.1459,N,00024.1736,E,1,00,,0289.4,M,0.0,M,,0000*78
$GPRMC,132624.000,A,4137.1459,N,00024.1736,E,000.00,0.0,160410,,,E*55
$GPGGA,132625.000,4137.1457,N,00024.1736,E,1,00,,0289.4,M,0.0,M,,0000*77
$GPRMC,132625.000,A,4137.1457,N,00024.1736,E,000.00,0.0,160410,,,E*5A
$GPGGA,132626.000,4137.1457,N,00024.1736,E,1,00,,0289.3,M,0.0,M,,0000*73
$GPRMC,132626.000,A,4137.1457,N,00024.1736,E,000.00,0.0,160410,,,E*59
$GPGGA,132627.000,4137.1457,N,00024.1736,E,1,00,,0289.2,M,0.0,M,,0000*73
$GPRMC,132627.000,A,4137.1457,N,00024.1736,E,000.00,0.0,160410,,,E*58
$GPGGA,132628.000,4137.1459,N,00024.1739,E,1,00,,0289.2,M,0.0,M,,0000*7D
$GPRMC,132628.000,A,4137.1459,N,00024.1739,E,000.74,0.0,160410,,,E*55
$GPGGA,132629.000,4137.1466,N,00024.1754,E,1,00,,0289.1,M,0.0,M,,0000*78
$GPRMC,132629.000,A,4137.1466,N,00024.1754,E,007.82,0.0,160410,,,E*5D
$GPGGA,132630.000,4137.1484,N,00024.1787,E,1,00,,0289.5,M,0.0,M,,0000*76
$GPRMC,132630.000,A,4137.1484,N,00024.1787,E,013.57,0.0,160410,,,E*5A
$GPGGA,132631.000,4137.1514,N,00024.1835,E,1,00,,0290.4,M,0.0,M,,0000*70
$GPRMC,132631.000,A,4137.1514,N,00024.1835,E,018.54,0.0,160410,,,E*5D
$GPGGA,132632.000,4137.1548,N,00024.1893,E,1,00,,0290.9,M,0.0,M,,0000*7B
$GPRMC,132632.000,A,4137.1548,N,00024.1893,E,020.30,0.0,160410,,,E*52
$GPGGA,132633.000,4137.1581,N,00024.1957,E,1,00,,0291.4,M,0.0,M,,0000*7A
$GPRMC,132633.000,A,4137.1581,N,00024.1957,E,020.58,0.0,160410,,,E*51
$GPGGA,132634.000,4137.1613,N,00024.2023,E,1,00,,0291.9,M,0.0,M,,0000*71
$GPRMC,132634.000,A,4137.1613,N,00024.2023,E,021.38,0.0,160410,,,E*50
$GPGGA,132635.000,4137.1647,N,00024.2091,E,1,00,,0292.4,M,0.0,M,,0000*76
$GPRMC,132635.000,A,4137.1647,N,00024.2091,E,022.70,0.0,160410,,,E*56
$GPGGA,132636.000,4137.1688,N,00024.2157,E,1,00,,0292.9,M,0.0,M,,0000*70
$GPRMC,132636.000,A,4137.1688,N,00024.2157,E,022.98,0.0,160410,,,E*5B
$GPGGA,132637.000,4137.1732,N,00024.2223,E,1,00,,0293.3,M,0.0,M,,0000*7A
$GPRMC,132637.000,A,4137.1732,N,00024.2223,E,023.34,0.0,160410,,,E*5D
$GPGGA,132638.000,4137.1782,N,00024.2295,E,1,00,,0293.6,M,0.0,M,,0000*76
$GPRMC,132638.000,A,4137.1782,N,00024.2295,E,028.41,0.0,160410,,,E*5D
$GPGGA,132639.000,4137.1839,N,00024.2384,E,1,00,,0293.9,M,0.0,M,,0000*76
$GPRMC,132639.000,A,4137.1839,N,00024.2384,E,033.85,0.0,160410,,,E*50
$GPGGA,132640.000,4137.1901,N,00024.2492,E,1,00,,0294.4,M,0.0,M,,0000*78
$GPRMC,132640.000,A,4137.1901,N,00024.2492,E,039.05,0.0,160410,,,E*56
$GPGGA,132641.000,4137.1970,N,00024.2620,E,1,00,,0294.9,M,0.0,M,,0000*79
$GPRMC,132641.000,A,4137.1970,N,00024.2620,E,044.34,0.0,160410,,,E*52
$GPGGA,132642.000,4137.2041,N,00024.2765,E,1,00,,0295.5,M,0.0,M,,0000*7F
$GPRMC,132642.000,A,4137.2041,N,00024.2765,E,048.49,0.0,160410,,,E*5F
$GPGGA,132643.000,4137.2116,N,00024.2918,E,1,00,,0296.1,M,0.0,M,,0000*7E
$GPRMC,132643.000,A,4137.2116,N,00024.2918,E,048.60,0.0,160410,,,E*52
$GPGGA,132644.000,4137.2189,N,00024.3066,E,1,00,,0296.7,M,0.0,M,,0000*78
$GPRMC,132644.000,A,4137.2189,N,00024.3066,E,046.09,0.0,160410,,,E*53
$GPGGA,132645.000,4137.2256,N,00024.3209,E,1,00,,0297.2,M,0.0,M,,0000*77
$GPRMC,132645.000,A,4137.2256,N,00024.3209,E,044.30,0.0,160410,,,E*50
$GPGGA,132646.000,4137.2322,N,00024.3343,E,1,00,,0297.7,M,0.0,M,,0000*7C
$GPRMC,132646.000,A,4137.2322,N,00024.3343,E,041.02,0.0,160410,,,E*5A
$GPGGA,132647.000,4137.2384,N,00024.3463,E,1,00,,0298.0,M,0.0,M,,0000*7C
$GPRMC,132647.000,A,4137.2384,N,00024.3463,E,037.04,0.0,160410,,,E*55
$GPGGA,132648.000,4137.2450,N,00024.3556,E,1,00,,0298.3,M,0.0,M,,0000*79
$GPRMC,132648.000,A,4137.2450,N,00024.3556,E,032.69,0.0,160410,,,E*5D
$GPGGA,132649.000,4137.2526,N,00024.3613,E,1,00,,0298.6,M,0.0,M,,0000*7F
$GPRMC,132649.000,A,4137.2526,N,00024.3613,E,028.85,0.0,160410,,,E*57
$GPGGA,132650.000,4137.2601,N,00024.3629,E,1,00,,0298.8,M,0.0,M,,0000*76
$GPRMC,132650.000,A,4137.2601,N,00024.3629,E,027.34,0.0,160410,,,E*55
$GPGGA,132651.000,4137.2677,N,00024.3604,E,1,00,,0299.0,M,0.0,M,,0000*70
$GPRMC,132651.000,A,4137.2677,N,00024.3604,E,028.85,0.0,160410,,,E*5F
$GPGGA,132652.000,4137.2746,N,00024.3537,E,1,00,,0299.2,M,0.0,M,,0000*71
$GPRMC,132652.000,A,4137.2746,N,00024.3537,E,032.31,0.0,160410,,,E*58
$GPGGA,132653.000,4137.2807,N,00024.3435,E,1,00,,0299.2,M,0.0,M,,0000*79
$GPRMC,132653.000,A,4137.2807,N,00024.3435,E,037.47,0.0,160410,,,E*54
$GPGGA,132654.000,4137.2860,N,00024.3299,E,1,00,,0299.1,M,0.0,M,,0000*7C
$GPRMC,132654.000,A,4137.2860,N,00024.3299,E,044.27,0.0,160410,,,E*50
$GPGGA,132655.000,4137.2906,N,00024.3136,E,1,00,,0299.2,M,0.0,M,,0000*79
$GPRMC,132655.000,A,4137.2906,N,00024.3136,E,048.03,0.0,160410,,,E*5C
$GPGGA,132656.000,4137.2935,N,00024.2960,E,1,00,,0299.3,M,0.0,M,,0000*71
$GPRMC,132656.000,A,4137.2935,N,00024.2960,E,048.06,0.0,160410,,,E*50
$GPGGA,132657.000,4137.2940,N,00024.2783,E,1,00,,0299.3,M,0.0,M,,0000*71
$GPRMC,132657.000,A,4137.2940,N,00024.2783,E,046.67,0.0,160410,,,E*59
$GPGGA,132658.000,4137.2915,N,00024.2613,E,1,00,,0299.3,M,0.0,M,,0000*76
$GPRMC,132658.000,A,4137.2915,N,00024.2613,E,046.35,0.0,160410,,,E*59
$GPGGA,132659.000,4137.2860,N,00024.2452,E,1,00,,0299.1,M,0.0,M,,0000*71
$GPRMC,132659.000,A,4137.2860,N,00024.2452,E,048.52,0.0,160410,,,E*53
$GPGGA,132700.000,4137.2771,N,00024.2299,E,1,00,,0299.0,M,0.0,M,,0000*73
$GPRMC,132700.000,A,4137.2771,N,00024.2299,E,054.01,0.0,160410,,,E*5B
$GPGGA,132701.000,4137.2656,N,00024.2149,E,1,00,,0298.7,M,0.0,M,,0000*7E
$GPRMC,132701.000,A,4137.2656,N,00024.2149,E,060.19,0.0,160410,,,E*5E
$GPGGA,132702.000,4137.2523,N,00024.1998,E,1,00,,0298.4,M,0.0,M,,0000*78
$GPRMC,132702.000,A,4137.2523,N,00024.1998,E,063.67,0.0,160410,,,E*51
$GPGGA,132703.000,4137.2384,N,00024.1852,E,1,00,,0298.1,M,0.0,M,,0000*70
$GPRMC,132703.000,A,4137.2384,N,00024.1852,E,061.86,0.0,160410,,,E*51
$GPGGA,132704.000,4137.2253,N,00024.1713,E,1,00,,0297.7,M,0.0,M,,0000*7F
$GPRMC,132704.000,A,4137.2253,N,00024.1713,E,058.01,0.0,160410,,,E*52
$GPGGA,132705.000,4137.2128,N,00024.1582,E,1,00,,0297.4,M,0.0,M,,0000*78
$GPRMC,132705.000,A,4137.2128,N,00024.1582,E,054.10,0.0,160410,,,E*5A
$GPGGA,132706.000,4137.2015,N,00024.1460,E,1,00,,0297.1,M,0.0,M,,0000*7C
$GPRMC,132706.000,A,4137.2015,N,00024.1460,E,050.17,0.0,160410,,,E*58
$GPGGA,132707.000,4137.1908,N,00024.1346,E,1,00,,0296.8,M,0.0,M,,0000*70
$GPRMC,132707.000,A,4137.1908,N,00024.1346,E,046.11,0.0,160410,,,E*5D
$GPGGA,132708.000,4137.1814,N,00024.1240,E,1,00,,0296.6,M,0.0,M,,0000*7A
$GPRMC,132708.000,A,4137.1814,N,00024.1240,E,042.16,0.0,160410,,,E*5A
$GPGGA,132709.000,4137.1729,N,00024.1139,E,1,00,,0296.3,M,0.0,M,,0000*72
$GPRMC,132709.000,A,4137.1729,N,00024.1139,E,038.60,0.0,160410,,,E*5B
$GPGGA,132710.000,4137.1656,N,00024.1042,E,1,00,,0296.1,M,0.0,M,,0000*7C
$GPRMC,132710.000,A,4137.1656,N,00024.1042,E,034.97,0.0,160410,,,E*53
$GPGGA,132711.000,4137.1603,N,00024.0943,E,1,00,,0295.9,M,0.0,M,,0000*7F
$GPRMC,132711.000,A,4137.1603,N,00024.0943,E,030.49,0.0,160410,,,E*5C
$GPGGA,132712.000,4137.1578,N,00024.0844,E,1,00,,0295.7,M,0.0,M,,0000*7B
$GPRMC,132712.000,A,4137.1578,N,00024.0844,E,026.61,0.0,160410,,,E*5B
$GPGGA,132713.000,4137.1583,N,00024.0750,E,1,00,,0295.8,M,0.0,M,,0000*7B
$GPRMC,132713.000,A,4137.1583,N,00024.0750,E,024.98,0.0,160410,,,E*50
$GPGGA,132714.000,4137.1617,N,00024.0669,E,1,00,,0296.0,M,0.0,M,,0000*72
$GPRMC,132714.000,A,4137.1617,N,00024.0669,E,026.32,0.0,160410,,,E*50
$GPGGA,132715.000,4137.1681,N,00024.0607,E,1,00,,0296.2,M,0.0,M,,0000*76
$GPRMC,132715.000,A,4137.1681,N,00024.0607,E,029.50,0.0,160410,,,E*5D
$GPGGA,132716.000,4137.1766,N,00024.0569,E,1,00,,0296.4,M,0.0,M,,0000*70
$GPRMC,132716.000,A,4137.1766,N,00024.0569,E,033.99,0.0,160410,,,E*53
$GPGGA,132717.000,4137.1867,N,00024.0556,E,1,00,,0296.7,M,0.0,M,,0000*70
$GPRMC,132717.000,A,4137.1867,N,00024.0556,E,039.78,0.0,160410,,,E*55
$GPGGA,132718.000,4137.1988,N,00024.0566,E,1,00,,0297.0,M,0.0,M,,0000*7A
$GPRMC,132718.000,A,4137.1988,N,00024.0566,E,046.41,0.0,160410,,,E*5B
$GPGGA,132719.000,4137.2125,N,00024.0594,E,1,00,,0297.4,M,0.0,M,,0000*7E
$GPRMC,132719.000,A,4137.2125,N,00024.0594,E,051.66,0.0,160410,,,E*58
$GPGGA,132720.000,4137.2269,N,00024.0634,E,1,00,,0297.8,M,0.0,M,,0000*7A
$GPRMC,132720.000,A,4137.2269,N,00024.0634,E,053.10,0.0,160410,,,E*53
$GPGGA,132721.000,4137.2414,N,00024.0685,E,1,00,,0298.2,M,0.0,M,,0000*78
$GPRMC,132721.000,A,4137.2414,N,00024.0685,E,053.32,0.0,160410,,,E*54
$GPGGA,132722.000,4137.2549,N,00024.0748,E,1,00,,0298.5,M,0.0,M,,0000*75
$GPRMC,132722.000,A,4137.2549,N,00024.0748,E,049.02,0.0,160410,,,E*56
$GPGGA,132723.000,4137.2665,N,00024.0831,E,1,00,,0298.7,M,0.0,M,,0000*7A
$GPRMC,132723.000,A,4137.2665,N,00024.0831,E,044.49,0.0,160410,,,E*59
$GPGGA,132724.000,4137.2755,N,00024.0939,E,1,00,,0298.9,M,0.0,M,,0000*78
$GPRMC,132724.000,A,4137.2755,N,00024.0939,E,042.53,0.0,160410,,,E*58
$GPGGA,132725.000,4137.2819,N,00024.1075,E,1,00,,0299.1,M,0.0,M,,0000*77
$GPRMC,132725.000,A,4137.2819,N,00024.1075,E,043.25,0.0,160410,,,E*5E
$GPGGA,132726.000,4137.2858,N,00024.1231,E,1,00,,0299.3,M,0.0,M,,0000*71
$GPRMC,132726.000,A,4137.2858,N,00024.1231,E,045.18,0.0,160410,,,E*52
$GPGGA,132727.000,4137.2887,N,00024.1389,E,1,00,,0299.3,M,0.0,M,,0000*70
$GPRMC,132727.000,A,4137.2887,N,00024.1389,E,041.84,0.0,160410,,,E*52
$GPGGA,132728.000,4137.2929,N,00024.1526,E,1,00,,0299.4,M,0.0,M,,0000*7E
$GPRMC,132728.000,A,4137.2929,N,00024.1526,E,037.56,0.0,160410,,,E*55
$GPGGA,132729.000,4137.2988,N,00024.1632,E,1,00,,0299.6,M,0.0,M,,0000*70
$GPRMC,132729.000,A,4137.2988,N,00024.1632,E,033.82,0.0,160410,,,E*54
$GPGGA,132730.000,4137.3064,N,00024.1699,E,1,00,,0299.6,M,0.0,M,,0000*73
$GPRMC,132730.000,A,4137.3064,N,00024.1699,E,032.02,0.0,160410,,,E*5E
$GPGGA,132731.000,4137.3148,N,00024.1724,E,1,00,,0299.5,M,0.0,M,,0000*79
$GPRMC,132731.000,A,4137.3148,N,00024.1724,E,030.80,0.0,160410,,,E*5F
$GPGGA,132732.000,4137.3231,N,00024.1703,E,1,00,,0299.3,M,0.0,M,,0000*74
$GPRMC,132732.000,A,4137.3231,N,00024.1703,E,031.41,0.0,160410,,,E*58
$GPGGA,132733.000,4137.3311,N,00024.1641,E,1,00,,0299.0,M,0.0,M,,0000*72
$GPRMC,132733.000,A,4137.3311,N,00024.1641,E,032.81,0.0,160410,,,E*52
$GPGGA,132734.000,4137.3368,N,00024.1544,E,1,00,,0298.7,M,0.0,M,,0000*7B
$GPRMC,132734.000,A,4137.3368,N,00024.1544,E,034.26,0.0,160410,,,E*56
$GPGGA,132735.000,4137.3402,N,00024.1420,E,1,00,,0298.3,M,0.0,M,,0000*76
$GPRMC,132735.000,A,4137.3402,N,00024.1420,E,037.11,0.0,160410,,,E*58
$GPGGA,132736.000,4137.3414,N,00024.1274,E,1,00,,0298.0,M,0.0,M,,0000*76
$GPRMC,132736.000,A,4137.3414,N,00024.1274,E,041.67,0.0,160410,,,E*5B
$GPGGA,132737.000,4137.3409,N,00024.1108,E,1,00,,0297.6,M,0.0,M,,0000*7A
$GPRMC,132737.000,A,4137.3409,N,00024.1108,E,046.69,0.0,160410,,,E*57
$GPGGA,132738.000,4137.3400,N,00024.0930,E,1,00,,0297.0,M,0.0,M,,0000*78
$GPRMC,132738.000,A,4137.3400,N,00024.0930,E,048.82,0.0,160410,,,E*58
$GPGGA,132739.000,4137.3384,N,00024.0743,E,1,00,,0295.9,M,0.0,M,,0000*73
$GPRMC,132739.000,A,4137.3384,N,00024.0743,E,051.44,0.0,160410,,,E*5A
$GPGGA,132740.000,4137.3363,N,00024.0550,E,1,00,,0294.3,M,0.0,M,,0000*7F
$GPRMC,132740.000,A,4137.3363,N,00024.0550,E,052.57,0.0,160410,,,E*5C
$GPGGA,132741.000,4137.3343,N,00024.0358,E,1,00,,0292.6,M,0.0,M,,0000*71
$GPRMC,132741.000,A,4137.3343,N,00024.0358,E,050.70,0.0,160410,,,E*56
$GPGGA,132742.000,4137.3322,N,00024.0175,E,1,00,,0290.9,M,0.0,M,,0000*75
$GPRMC,132742.000,A,4137.3322,N,00024.0175,E,048.16,0.0,160410,,,E*56
$GPGGA,132743.000,4137.3295,N,00024.0004,E,1,00,,0289.2,M,0.0,M,,0000*7D
$GPRMC,132743.000,A,4137.3295,N,00024.0004,E,045.52,0.0,160410,,,E*50
$GPGGA,132744.000,4137.3256,N,00023.9848,E,1,00,,0287.4,M,0.0,M,,0000*73
$GPRMC,132744.000,A,4137.3256,N,00023.9848,E,042.86,0.0,160410,,,E*58
$GPGGA,132745.000,4137.3199,N,00023.9713,E,1,00,,0285.7,M,0.0,M,,0000*72
$GPRMC,132745.000,A,4137.3199,N,00023.9713,E,040.37,0.0,160410,,,E*50
$GPGGA,132746.000,4137.3123,N,00023.9602,E,1,00,,0284.0,M,0.0,M,,0000*77
$GPRMC,132746.000,A,4137.3123,N,00023.9602,E,040.71,0.0,160410,,,E*51
$GPGGA,132747.000,4137.3029,N,00023.9507,E,1,00,,0282.2,M,0.0,M,,0000*7F
$GPRMC,132747.000,A,4137.3029,N,00023.9507,E,043.93,0.0,160410,,,E*52
$GPGGA,132748.000,4137.2917,N,00023.9423,E,1,00,,0280.3,M,0.0,M,,0000*71
$GPRMC,132748.000,A,4137.2917,N,00023.9423,E,047.23,0.0,160410,,,E*50
$GPGGA,132749.000,4137.2791,N,00023.9347,E,1,00,,0279.0,M,0.0,M,,0000*70
$GPRMC,132749.000,A,4137.2791,N,00023.9347,E,051.14,0.0,160410,,,E*57
$GPGGA,132750.000,4137.2649,N,00023.9293,E,1,00,,0278.5,M,0.0,M,,0000*70
$GPRMC,132750.000,A,4137.2649,N,00023.9293,E,053.23,0.0,160410,,,E*55
$GPGGA,132751.000,4137.2496,N,00023.9271,E,1,00,,0278.1,M,0.0,M,,0000*79
$GPRMC,132751.000,A,4137.2496,N,00023.9271,E,056.83,0.0,160410,,,E*57
$GPGGA,132752.000,4137.2329,N,00023.9287,E,1,00,,0277.9,M,0.0,M,,0000*77
$GPRMC,132752.000,A,4137.2329,N,00023.9287,E,062.85,0.0,160410,,,E*5F
$GPGGA,132753.000,4137.2146,N,00023.9340,E,1,00,,0277.8,M,0.0,M,,0000*76
$GPRMC,132753.000,A,4137.2146,N,00023.9340,E,070.16,0.0,160410,,,E*56
$GPGGA,132754.000,4137.1949,N,00023.9424,E,1,00,,0277.6,M,0.0,M,,0000*7E
$GPRMC,132754.000,A,4137.1949,N,00023.9424,E,077.01,0.0,160410,,,E*51
$GPGGA,132755.000,4137.1750,N,00023.9523,E,1,00,,0277.4,M,0.0,M,,0000*7D
$GPRMC,132755.000,A,4137.1750,N,00023.9523,E,073.74,0.0,160410,,,E*56
$GPGGA,132756.000,4137.1567,N,00023.9614,E,1,00,,0278.0,M,0.0,M,,0000*74
$GPRMC,132756.000,A,4137.1567,N,00023.9614,E,065.99,0.0,160410,,,E*50
$GPGGA,132757.000,4137.1402,N,00023.9685,E,1,00,,0278.7,M,0.0,M,,0000*78
$GPRMC,132757.000,A,4137.1402,N,00023.9685,E,056.96,0.0,160410,,,E*54
$GPGGA,132758.000,4137.1258,N,00023.9725,E,1,00,,0279.3,M,0.0,M,,0000*70
$GPRMC,132758.000,A,4137.1258,N,00023.9725,E,048.72,0.0,160410,,,E*5C
$GPGGA,132759.000,4137.1132,N,00023.9723,E,1,00,,0279.9,M,0.0,M,,0000*72
$GPRMC,132759.000,A,4137.1132,N,00023.9723,E,042.94,0.0,160410,,,E*56
$GPGGA,132800.000,4137.1022,N,00023.9675,E,1,00,,0280.4,M,0.0,M,,0000*78
$GPRMC,132800.000,A,4137.1022,N,00023.9675,E,040.21,0.0,160410,,,E*5B
$GPGGA,132801.000,4137.0933,N,00023.9584,E,1,00,,0280.8,M,0.0,M,,0000*70
$GPRMC,132801.000,A,4137.0933,N,00023.9584,E,041.14,0.0,160410,,,E*58
$GPGGA,132802.000,4137.0866,N,00023.9456,E,1,00,,0280.8,M,0.0,M,,0000*7C
$GPRMC,132802.000,A,4137.0866,N,00023.9456,E,042.66,0.0,160410,,,E*52
$GPGGA,132803.000,4137.0832,N,00023.9306,E,1,00,,0280.5,M,0.0,M,,0000*73
$GPRMC,132803.000,A,4137.0832,N,00023.9306,E,042.60,0.0,160410,,,E*56
$GPGGA,132804.000,4137.0830,N,00023.9148,E,1,00,,0279.8,M,0.0,M,,0000*75
$GPRMC,132804.000,A,4137.0830,N,00023.9148,E,042.71,0.0,160410,,,E*5B
$GPGGA,132805.000,4137.0864,N,00023.8995,E,1,00,,0278.7,M,0.0,M,,0000*72
$GPRMC,132805.000,A,4137.0864,N,00023.8995,E,043.27,0.0,160410,,,E*50
$GPGGA,132806.000,4137.0930,N,00023.8860,E,1,00,,0277.6,M,0.0,M,,0000*74
$GPRMC,132806.000,A,4137.0930,N,00023.8860,E,044.36,0.0,160410,,,E*5F
$GPGGA,132807.000,4137.1029,N,00023.8754,E,1,00,,0276.5,M,0.0,M,,0000*7F
$GPRMC,132807.000,A,4137.1029,N,00023.8754,E,045.02,0.0,160410,,,E*50
$GPGGA,132808.000,4137.1146,N,00023.8690,E,1,00,,0275.5,M,0.0,M,,0000*72
$GPRMC,132808.000,A,4137.1146,N,00023.8690,E,045.50,0.0,160410,,,E*59
$GPGGA,132809.000,4137.1274,N,00023.8676,E,1,00,,0274.9,M,0.0,M,,0000*74
$GPRMC,132809.000,A,4137.1274,N,00023.8676,E,046.18,0.0,160410,,,E*5D
$GPGGA,132810.000,4137.1397,N,00023.8707,E,1,00,,0274.3,M,0.0,M,,0000*7D
$GPRMC,132810.000,A,4137.1397,N,00023.8707,E,044.47,0.0,160410,,,E*56
$GPGGA,132811.000,4137.1510,N,00023.8762,E,1,00,,0273.9,M,0.0,M,,0000*7B
$GPRMC,132811.000,A,4137.1510,N,00023.8762,E,041.45,0.0,160410,,,E*5A
$GPGGA,132812.000,4137.1615,N,00023.8816,E,1,00,,0273.9,M,0.0,M,,0000*72
$GPRMC,132812.000,A,4137.1615,N,00023.8816,E,038.01,0.0,160410,,,E*5D
$GPGGA,132813.000,4137.1713,N,00023.8851,E,1,00,,0273.8,M,0.0,M,,0000*76
$GPRMC,132813.000,A,4137.1713,N,00023.8851,E,033.92,0.0,160410,,,E*59
$GPGGA,132814.000,4137.1805,N,00023.8849,E,1,00,,0273.6,M,0.0,M,,0000*7E
$GPRMC,132814.000,A,4137.1805,N,00023.8849,E,031.96,0.0,160410,,,E*59
$GPGGA,132815.000,4137.1883,N,00023.8800,E,1,00,,0273.4,M,0.0,M,,0000*7E
$GPRMC,132815.000,A,4137.1883,N,00023.8800,E,031.85,0.0,160410,,,E*59
$GPGGA,132816.000,4137.1949,N,00023.8716,E,1,00,,0273.1,M,0.0,M,,0000*77
$GPRMC,132816.000,A,4137.1949,N,00023.8716,E,032.74,0.0,160410,,,E*58
$GPGGA,132817.000,4137.2011,N,00023.8627,E,1,00,,0272.7,M,0.0,M,,0000*75
$GPRMC,132817.000,A,4137.2011,N,00023.8627,E,032.32,0.0,160410,,,E*5F
$GPGGA,132818.000,4137.2089,N,00023.8569,E,1,00,,0272.5,M,0.0,M,,0000*70
$GPRMC,132818.000,A,4137.2089,N,00023.8569,E,033.16,0.0,160410,,,E*5F
$GPGGA,132819.000,4137.2185,N,00023.8555,E,1,00,,0272.5,M,0.0,M,,0000*73
$GPRMC,132819.000,A,4137.2185,N,00023.8555,E,036.43,0.0,160410,,,E*59
$GPGGA,132820.000,4137.2295,N,00023.8581,E,1,00,,0272.6,M,0.0,M,,0000*71
$GPRMC,132820.000,A,4137.2295,N,00023.8581,E,042.77,0.0,160410,,,E*5C
$GPGGA,132821.000,4137.2411,N,00023.8633,E,1,00,,0272.9,M,0.0,M,,0000*7F
$GPRMC,132821.000,A,4137.2411,N,00023.8633,E,045.67,0.0,160410,,,E*5B
$GPGGA,132822.000,4137.2535,N,00023.8699,E,1,00,,0273.1,M,0.0,M,,0000*72
$GPRMC,132822.000,A,4137.2535,N,00023.8699,E,047.69,0.0,160410,,,E*53
$GPGGA,132823.000,4137.2656,N,00023.8770,E,1,00,,0273.4,M,0.0,M,,0000*76
$GPRMC,132823.000,A,4137.2656,N,00023.8770,E,047.03,0.0,160410,,,E*5E
$GPGGA,132824.000,4137.2773,N,00023.8829,E,1,00,,0273.6,M,0.0,M,,0000*76
$GPRMC,132824.000,A,4137.2773,N,00023.8829,E,042.09,0.0,160410,,,E*53
$GPGGA,132825.000,4137.2881,N,00023.8861,E,1,00,,0273.6,M,0.0,M,,0000*79
$GPRMC,132825.000,A,4137.2881,N,00023.8861,E,036.41,0.0,160410,,,E*53
$GPGGA,132826.000,4137.2974,N,00023.8856,E,1,00,,0273.4,M,0.0,M,,0000*77
$GPRMC,132826.000,A,4137.2974,N,00023.8856,E,030.73,0.0,160410,,,E*58
$GPGGA,132827.000,4137.3045,N,00023.8813,E,1,00,,0273.1,M,0.0,M,,0000*78
$GPRMC,132827.000,A,4137.3045,N,00023.8813,E,026.66,0.0,160410,,,E*51
$GPGGA,132828.000,4137.3089,N,00023.8739,E,1,00,,0272.6,M,0.0,M,,0000*76
$GPRMC,132828.000,A,4137.3089,N,00023.8739,E,025.19,0.0,160410,,,E*52
$GPGGA,132829.000,4137.3100,N,00023.8642,E,1,00,,0272.0,M,0.0,M,,0000*7C
$GPRMC,132829.000,A,4137.3100,N,00023.8642,E,028.46,0.0,160410,,,E*59
$GPGGA,132830.000,4137.3093,N,00023.8531,E,1,00,,0271.4,M,0.0,M,,0000*7F
$GPRMC,132830.000,A,4137.3093,N,00023.8531,E,031.10,0.0,160410,,,E*56
$GPGGA,132831.000,4137.3075,N,00023.8420,E,1,00,,0270.7,M,0.0,M,,0000*75
$GPRMC,132831.000,A,4137.3075,N,00023.8420,E,029.80,0.0,160410,,,E*5E
$GPGGA,132832.000,4137.3057,N,00023.8318,E,1,00,,0270.1,M,0.0,M,,0000*7C
$GPRMC,132832.000,A,4137.3057,N,00023.8318,E,026.35,0.0,160410,,,E*50
$GPGGA,132833.000,4137.3036,N,00023.8227,E,1,00,,0269.5,M,0.0,M,,0000*7B
$GPRMC,132833.000,A,4137.3036,N,00023.8227,E,024.38,0.0,160410,,,E*54
$GPGGA,132834.000,4137.3020,N,00023.8137,E,1,00,,0268.9,M,0.0,M,,0000*74
$GPRMC,132834.000,A,4137.3020,N,00023.8137,E,025.23,0.0,160410,,,E*5D
$GPGGA,132835.000,4137.3000,N,00023.8041,E,1,00,,0268.1,M,0.0,M,,0000*7F
$GPRMC,132835.000,A,4137.3000,N,00023.8041,E,027.85,0.0,160410,,,E*50
$GPGGA,132836.000,4137.2961,N,00023.7950,E,1,00,,0267.6,M,0.0,M,,0000*7D
$GPRMC,132836.000,A,4137.2961,N,00023.7950,E,029.74,0.0,160410,,,E*5A
$GPGGA,132837.000,4137.2890,N,00023.7882,E,1,00,,0267.4,M,0.0,M,,0000*7F
$GPRMC,132837.000,A,4137.2890,N,00023.7882,E,034.12,0.0,160410,,,E*56
$GPGGA,132838.000,4137.2787,N,00023.7847,E,1,00,,0267.5,M,0.0,M,,0000*71
$GPRMC,132838.000,A,4137.2787,N,00023.7847,E,041.62,0.0,160410,,,E*5C
$GPGGA,132839.000,4137.2661,N,00023.7843,E,1,00,,0267.8,M,0.0,M,,0000*70
$GPRMC,132839.000,A,4137.2661,N,00023.7843,E,047.92,0.0,160410,,,E*59
$GPGGA,132840.000,4137.2519,N,00023.7863,E,1,00,,0268.2,M,0.0,M,,0000*75
$GPRMC,132840.000,A,4137.2519,N,00023.7863,E,053.94,0.0,160410,,,E*5A
$GPGGA,132841.000,4137.2356,N,00023.7897,E,1,00,,0268.7,M,0.0,M,,0000*77
$GPRMC,132841.000,A,4137.2356,N,00023.7897,E,061.35,0.0,160410,,,E*57
$GPGGA,132842.000,4137.2178,N,00023.7933,E,1,00,,0269.2,M,0.0,M,,0000*71
$GPRMC,132842.000,A,4137.2178,N,00023.7933,E,066.97,0.0,160410,,,E*5A
$GPGGA,132843.000,4137.1986,N,00023.7970,E,1,00,,0269.7,M,0.0,M,,0000*78
$GPRMC,132843.000,A,4137.1986,N,00023.7970,E,071.14,0.0,160410,,,E*5B
$GPGGA,132844.000,4137.1784,N,00023.8007,E,1,00,,0270.4,M,0.0,M,,0000*7E
$GPRMC,132844.000,A,4137.1784,N,00023.8007,E,074.43,0.0,160410,,,E*51
$GPGGA,132845.000,4137.1571,N,00023.8047,E,1,00,,0271.0,M,0.0,M,,0000*76
$GPRMC,132845.000,A,4137.1571,N,00023.8047,E,078.63,0.0,160410,,,E*52
$GPGGA,132846.000,4137.1347,N,00023.8091,E,1,00,,0271.7,M,0.0,M,,0000*7A
$GPRMC,132846.000,A,4137.1347,N,00023.8091,E,082.49,0.0,160410,,,E*54
$GPGGA,132847.000,4137.1118,N,00023.8144,E,1,00,,0272.5,M,0.0,M,,0000*7B
$GPRMC,132847.000,A,4137.1118,N,00023.8144,E,082.00,0.0,160410,,,E*59
$GPGGA,132848.000,4137.0903,N,00023.8210,E,1,00,,0273.9,M,0.0,M,,0000*78
$GPRMC,132848.000,A,4137.0903,N,00023.8210,E,076.28,0.0,160410,,,E*56
$GPGGA,132849.000,4137.0711,N,00023.8290,E,1,00,,0275.7,M,0.0,M,,0000*74
$GPRMC,132849.000,A,4137.0711,N,00023.8290,E,066.98,0.0,160410,,,E*58
$GPGGA,132850.000,4137.0551,N,00023.8378,E,1,00,,0277.5,M,0.0,M,,0000*7D
$GPRMC,132850.000,A,4137.0551,N,00023.8378,E,057.69,0.0,160410,,,E*5D
$GPGGA,132851.000,4137.0415,N,00023.8472,E,1,00,,0279.2,M,0.0,M,,0000*79
$GPRMC,132851.000,A,4137.0415,N,00023.8472,E,050.04,0.0,160410,,,E*5C
$GPGGA,132852.000,4137.0315,N,00023.8575,E,1,00,,0280.7,M,0.0,M,,0000*78
$GPRMC,132852.000,A,4137.0315,N,00023.8575,E,043.13,0.0,160410,,,E*5A
$GPGGA,132853.000,4137.0242,N,00023.8693,E,1,00,,0282.1,M,0.0,M,,0000*75
$GPRMC,132853.000,A,4137.0242,N,00023.8693,E,038.76,0.0,160410,,,E*5C
$GPGGA,132854.000,4137.0210,N,00023.8826,E,1,00,,0283.2,M,0.0,M,,0000*77
$GPRMC,132854.000,A,4137.0210,N,00023.8826,E,037.60,0.0,160410,,,E*54
$GPGGA,132855.000,4137.0212,N,00023.8969,E,1,00,,0284.1,M,0.0,M,,0000*7A
$GPRMC,132855.000,A,4137.0212,N,00023.8969,E,040.22,0.0,160410,,,E*5B
$GPGGA,132856.000,4137.0251,N,00023.9124,E,1,00,,0284.9,M,0.0,M,,0000*76
$GPRMC,132856.000,A,4137.0251,N,00023.9124,E,047.30,0.0,160410,,,E*5B
$GPGGA,132857.000,4137.0319,N,00023.9295,E,1,00,,0285.6,M,0.0,M,,0000*7D
$GPRMC,132857.000,A,4137.0319,N,00023.9295,E,056.06,0.0,160410,,,E*5B
$GPGGA,132858.000,4137.0413,N,00023.9488,E,1,00,,0286.3,M,0.0,M,,0000*73
$GPRMC,132858.000,A,4137.0413,N,00023.9488,E,066.06,0.0,160410,,,E*50
$GPGGA,132859.000,4137.0525,N,00023.9709,E,1,00,,0287.1,M,0.0,M,,0000*7F
$GPRMC,132859.000,A,4137.0525,N,00023.9709,E,076.09,0.0,160410,,,E*51
$GPGGA,132900.000,4137.0651,N,00023.9959,E,1,00,,0288.0,M,0.0,M,,0000*77
$GPRMC,132900.000,A,4137.0651,N,00023.9959,E,084.45,0.0,160410,,,E*52
$GPGGA,132901.000,4137.0789,N,00024.0233,E,1,00,,0288.9,M,0.0,M,,0000*72
$GPRMC,132901.000,A,4137.0789,N,00024.0233,E,091.69,0.0,160410,,,E*54
$GPGGA,132902.000,4137.0937,N,00024.0529,E,1,00,,0289.9,M,0.0,M,,0000*77
$GPRMC,132902.000,A,4137.0937,N,00024.0529,E,097.50,0.0,160410,,,E*5C
$GPGGA,132903.000,4137.1091,N,00024.0843,E,1,00,,0290.9,M,0.0,M,,0000*7B
$GPRMC,132903.000,A,4137.1091,N,00024.0843,E,102.82,0.0,160410,,,E*5A
$GPGGA,132904.000,4137.1251,N,00024.1172,E,1,00,,0292.0,M,0.0,M,,0000*73
$GPRMC,132904.000,A,4137.1251,N,00024.1172,E,106.54,0.0,160410,,,E*56
$GPGGA,132905.000,4137.1416,N,00024.1512,E,1,00,,0293.1,M,0.0,M,,0000*75
$GPRMC,132905.000,A,4137.1416,N,00024.1512,E,110.31,0.0,160410,,,E*54
$GPGGA,132906.000,4137.1590,N,00024.1860,E,1,00,,0294.3,M,0.0,M,,0000*74
$GPRMC,132906.000,A,4137.1590,N,00024.1860,E,111.78,0.0,160410,,,E*5C
$GPGGA,132907.000,4137.1754,N,00024.2198,E,1,00,,0295.4,M,0.0,M,,0000*74
$GPRMC,132907.000,A,4137.1754,N,00024.2198,E,104.28,0.0,160410,,,E*5B
$GPGGA,132908.000,4137.1903,N,00024.2506,E,1,00,,0296.4,M,0.0,M,,0000*77
$GPRMC,132908.000,A,4137.1903,N,00024.2506,E,092.42,0.0,160410,,,E*59
$GPGGA,132909.000,4137.2038,N,00024.2776,E,1,00,,0297.3,M,0.0,M,,0000*77
$GPRMC,132909.000,A,4137.2038,N,00024.2776,E,080.76,0.0,160410,,,E*5B
$GPGGA,132910.000,4137.2153,N,00024.3010,E,1,00,,0298.1,M,0.0,M,,0000*78
$GPRMC,132910.000,A,4137.2153,N,00024.3010,E,068.67,0.0,160410,,,E*5F
$GPGGA,132911.000,4137.2251,N,00024.3208,E,1,00,,0298.7,M,0.0,M,,0000*75
$GPRMC,132911.000,A,4137.2251,N,00024.3208,E,058.74,0.0,160410,,,E*55
$GPGGA,132912.000,4137.2336,N,00024.3377,E,1,00,,0299.1,M,0.0,M,,0000*78
$GPRMC,132912.000,A,4137.2336,N,00024.3377,E,050.71,0.0,160410,,,E*52
$GPGGA,132913.000,4137.2418,N,00024.3512,E,1,00,,0299.4,M,0.0,M,,0000*72
$GPRMC,132913.000,A,4137.2418,N,00024.3512,E,043.00,0.0,160410,,,E*59
$GPGGA,132914.000,4137.2507,N,00024.3597,E,1,00,,0299.6,M,0.0,M,,0000*75
$GPRMC,132914.000,A,4137.2507,N,00024.3597,E,036.91,0.0,160410,,,E*56
$GPGGA,132915.000,4137.2604,N,00024.3624,E,1,00,,0299.7,M,0.0,M,,0000*7E
$GPRMC,132915.000,A,4137.2604,N,00024.3624,E,033.83,0.0,160410,,,E*5A
$GPGGA,132916.000,4137.2695,N,00024.3591,E,1,00,,0299.8,M,0.0,M,,0000*77
$GPRMC,132916.000,A,4137.2695,N,00024.3591,E,035.71,0.0,160410,,,E*57
$GPGGA,132917.000,4137.2778,N,00024.3501,E,1,00,,0299.9,M,0.0,M,,0000*7C
$GPRMC,132917.000,A,4137.2778,N,00024.3501,E,041.02,0.0,160410,,,E*5A
$GPGGA,132918.000,4137.2846,N,00024.3361,E,1,00,,0300.0,M,0.0,M,,0000*79
$GPRMC,132918.000,A,4137.2846,N,00024.3361,E,048.38,0.0,160410,,,E*57
$GPGGA,132919.000,4137.2903,N,00024.3182,E,1,00,,0300.0,M,0.0,M,,0000*77
$GPRMC,132919.000,A,4137.2903,N,00024.3182,E,054.82,0.0,160410,,,E*55
$GPGGA,132920.000,4137.2938,N,00024.2981,E,1,00,,0299.7,M,0.0,M,,0000*79
$GPRMC,132920.000,A,4137.2938,N,00024.2981,E,055.65,0.0,160410,,,E*55
$GPGGA,132921.000,4137.2942,N,00024.2782,E,1,00,,0299.3,M,0.0,M,,0000*7C
$GPRMC,132921.000,A,4137.2942,N,00024.2782,E,051.56,0.0,160410,,,E*50
$GPGGA,132922.000,4137.2910,N,00024.2594,E,1,00,,0299.2,M,0.0,M,,0000*7C
$GPRMC,132922.000,A,4137.2910,N,00024.2594,E,052.11,0.0,160410,,,E*51
$GPGGA,132923.000,4137.2835,N,00024.2416,E,1,00,,0299.0,M,0.0,M,,0000*72
$GPRMC,132923.000,A,4137.2835,N,00024.2416,E,057.24,0.0,160410,,,E*5E
$GPGGA,132924.000,4137.2723,N,00024.2247,E,1,00,,0298.5,M,0.0,M,,0000*7B
$GPRMC,132924.000,A,4137.2723,N,00024.2247,E,063.39,0.0,160410,,,E*58
$GPGGA,132925.000,4137.2581,N,00024.2082,E,1,00,,0297.9,M,0.0,M,,0000*78
$GPRMC,132925.000,A,4137.2581,N,00024.2082,E,071.66,0.0,160410,,,E*51
$GPGGA,132926.000,4137.2414,N,00024.1906,E,1,00,,0297.3,M,0.0,M,,0000*7A
$GPRMC,132926.000,A,4137.2414,N,00024.1906,E,079.01,0.0,160410,,,E*50
$GPGGA,132927.000,4137.2242,N,00024.1719,E,1,00,,0296.9,M,0.0,M,,0000*75
$GPRMC,132927.000,A,4137.2242,N,00024.1719,E,078.33,0.0,160410,,,E*54
$GPGGA,132928.000,4137.2082,N,00024.1539,E,1,00,,0296.6,M,0.0,M,,0000*7B
$GPRMC,132928.000,A,4137.2082,N,00024.1539,E,071.02,0.0,160410,,,E*5E
$GPGGA,132929.000,4137.1940,N,00024.1377,E,1,00,,0296.2,M,0.0,M,,0000*76
$GPRMC,132929.000,A,4137.1940,N,00024.1377,E,061.97,0.0,160410,,,E*5A
$GPGGA,132930.000,4137.1821,N,00024.1239,E,1,00,,0295.9,M,0.0,M,,0000*7B
$GPRMC,132930.000,A,4137.1821,N,00024.1239,E,051.33,0.0,160410,,,E*52
$GPGGA,132931.000,4137.1720,N,00024.1120,E,1,00,,0295.6,M,0.0,M,,0000*70
$GPRMC,132931.000,A,4137.1720,N,00024.1120,E,044.14,0.0,160410,,,E*57
$GPGGA,132932.000,4137.1645,N,00024.1007,E,1,00,,0295.2,M,0.0,M,,0000*71
$GPRMC,132932.000,A,4137.1645,N,00024.1007,E,037.71,0.0,160410,,,E*55
$GPGGA,132933.000,4137.1599,N,00024.0892,E,1,00,,0295.0,M,0.0,M,,0000*75
$GPRMC,132933.000,A,4137.1599,N,00024.0892,E,032.41,0.0,160410,,,E*55
$GPGGA,132934.000,4137.1597,N,00024.0780,E,1,00,,0295.0,M,0.0,M,,0000*70
$GPRMC,132934.000,A,4137.1597,N,00024.0780,E,029.14,0.0,160410,,,E*5A
$GPGGA,132935.000,4137.1640,N,00024.0683,E,1,00,,0295.0,M,0.0,M,,0000*7A
$GPRMC,132935.000,A,4137.1640,N,00024.0683,E,033.40,0.0,160410,,,E*5A
$GPGGA,132936.000,4137.1727,N,00024.0610,E,1,00,,0295.3,M,0.0,M,,0000*70
$GPRMC,132936.000,A,4137.1727,N,00024.0610,E,041.26,0.0,160410,,,E*56
$GPGGA,132937.000,4137.1855,N,00024.0575,E,1,00,,0295.6,M,0.0,M,,0000*7E
$GPRMC,132937.000,A,4137.1855,N,00024.0575,E,050.98,0.0,160410,,,E*58
$GPGGA,132938.000,4137.2011,N,00024.0579,E,1,00,,0295.9,M,0.0,M,,0000*79
$GPRMC,132938.000,A,4137.2011,N,00024.0579,E,060.29,0.0,160410,,,E*59
$GPGGA,132939.000,4137.2189,N,00024.0614,E,1,00,,0296.5,M,0.0,M,,0000*7F
$GPRMC,132939.000,A,4137.2189,N,00024.0614,E,067.34,0.0,160410,,,E*5B
$GPGGA,132940.000,4137.2370,N,00024.0667,E,1,00,,0296.9,M,0.0,M,,0000*7D
$GPRMC,132940.000,A,4137.2370,N,00024.0667,E,063.68,0.0,160410,,,E*58
$GPGGA,132941.000,4137.2528,N,00024.0732,E,1,00,,0297.3,M,0.0,M,,0000*7D
$GPRMC,132941.000,A,4137.2528,N,00024.0732,E,055.05,0.0,160410,,,E*5D
$GPGGA,132942.000,4137.2659,N,00024.0819,E,1,00,,0297.5,M,0.0,M,,0000*7B
$GPRMC,132942.000,A,4137.2659,N,00024.0819,E,048.57,0.0,160410,,,E*56
$GPGGA,132943.000,4137.2755,N,00024.0940,E,1,00,,0297.7,M,0.0,M,,0000*78
$GPRMC,132943.000,A,4137.2755,N,00024.0940,E,046.85,0.0,160410,,,E*56
$GPGGA,132944.000,4137.2821,N,00024.1099,E,1,00,,0298.0,M,0.0,M,,0000*77
$GPRMC,132944.000,A,4137.2821,N,00024.1099,E,051.05,0.0,160410,,,E*5F
$GPGGA,132945.000,4137.2862,N,00024.1281,E,1,00,,0298.1,M,0.0,M,,0000*7B
$GPRMC,132945.000,A,4137.2862,N,00024.1281,E,051.21,0.0,160410,,,E*54
$GPGGA,132946.000,4137.2901,N,00024.1457,E,1,00,,0298.2,M,0.0,M,,0000*72
$GPRMC,132946.000,A,4137.2901,N,00024.1457,E,046.90,0.0,160410,,,E*52
$GPGGA,132947.000,4137.2961,N,00024.1600,E,1,00,,0298.4,M,0.0,M,,0000*73
$GPRMC,132947.000,A,4137.2961,N,00024.1600,E,041.19,0.0,160410,,,E*53
$GPGGA,132948.000,4137.3041,N,00024.1692,E,1,00,,0298.5,M,0.0,M,,0000*7C
$GPRMC,132948.000,A,4137.3041,N,00024.1692,E,036.72,0.0,160410,,,E*50
$GPGGA,132949.000,4137.3139,N,00024.1723,E,1,00,,0298.5,M,0.0,M,,0000*78
$GPRMC,132949.000,A,4137.3139,N,00024.1723,E,036.73,0.0,160410,,,E*55
$GPGGA,132950.000,4137.3242,N,00024.1690,E,1,00,,0298.2,M,0.0,M,,0000*71
$GPRMC,132950.000,A,4137.3242,N,00024.1690,E,039.65,0.0,160410,,,E*53
$GPGGA,132951.000,4137.3331,N,00024.1597,E,1,00,,0297.9,M,0.0,M,,0000*75
$GPRMC,132951.000,A,4137.3331,N,00024.1597,E,042.78,0.0,160410,,,E*53
$GPGGA,132952.000,4137.3393,N,00024.1451,E,1,00,,0297.5,M,0.0,M,,0000*79
$GPRMC,132952.000,A,4137.3393,N,00024.1451,E,047.57,0.0,160410,,,E*5B
$GPGGA,132953.000,4137.3421,N,00024.1263,E,1,00,,0297.0,M,0.0,M,,0000*74
$GPRMC,132953.000,A,4137.3421,N,00024.1263,E,055.32,0.0,160410,,,E*53
$GPGGA,132954.000,4137.3418,N,00024.1039,E,1,00,,0296.4,M,0.0,M,,0000*71
$GPRMC,132954.000,A,4137.3418,N,00024.1039,E,064.55,0.0,160410,,,E*50
$GPGGA,132955.000,4137.3398,N,00024.0784,E,1,00,,0295.1,M,0.0,M,,0000*79
$GPRMC,132955.000,A,4137.3398,N,00024.0784,E,071.79,0.0,160410,,,E*54
$GPGGA,132956.000,4137.3368,N,00024.0507,E,1,00,,0293.1,M,0.0,M,,0000*7A
$GPRMC,132956.000,A,4137.3368,N,00024.0507,E,076.98,0.0,160410,,,E*59
$GPGGA,132957.000,4137.3329,N,00024.0225,E,1,00,,0291.1,M,0.0,M,,0000*7B
$GPRMC,132957.000,A,4137.3329,N,00024.0225,E,076.17,0.0,160410,,,E*5D
$GPGGA,132958.000,4137.3272,N,00023.9964,E,1,00,,0288.5,M,0.0,M,,0000*77
$GPRMC,132958.000,A,4137.3272,N,00023.9964,E,070.14,0.0,160410,,,E*58
$GPGGA,132959.000,4137.3180,N,00023.9744,E,1,00,,0285.6,M,0.0,M,,0000*7A
$GPRMC,132959.000,A,4137.3180,N,00023.9744,E,065.49,0.0,160410,,,E*57
$GPGGA,133000.000,4137.3057,N,00023.9565,E,1,00,,0282.6,M,0.0,M,,0000*73
$GPRMC,133000.000,A,4137.3057,N,00023.9565,E,066.37,0.0,160410,,,E*53
$GPGGA,133001.000,4137.2899,N,00023.9422,E,1,00,,0280.0,M,0.0,M,,0000*7F
$GPRMC,133001.000,A,4137.2899,N,00023.9422,E,070.24,0.0,160410,,,E*5E
$GPGGA,133002.000,4137.2709,N,00023.9323,E,1,00,,0279.0,M,0.0,M,,0000*7A
$GPRMC,133002.000,A,4137.2709,N,00023.9323,E,073.18,0.0,160410,,,E*51
$GPGGA,133003.000,4137.2505,N,00023.9281,E,1,00,,0278.4,M,0.0,M,,0000*79
$GPRMC,133003.000,A,4137.2505,N,00023.9281,E,074.81,0.0,160410,,,E*50
$GPGGA,133004.000,4137.2290,N,00023.9297,E,1,00,,0278.1,M,0.0,M,,0000*77
$GPRMC,133004.000,A,4137.2290,N,00023.9297,E,078.28,0.0,160410,,,E*54
$GPGGA,133005.000,4137.2068,N,00023.9364,E,1,00,,0277.7,M,0.0,M,,0000*77
$GPRMC,133005.000,A,4137.2068,N,00023.9364,E,084.20,0.0,160410,,,E*56
$GPGGA,133006.000,4137.1844,N,00023.9463,E,1,00,,0277.4,M,0.0,M,,0000*72
$GPRMC,133006.000,A,4137.1844,N,00023.9463,E,083.83,0.0,160410,,,E*5E
$GPGGA,133007.000,4137.1638,N,00023.9569,E,1,00,,0277.7,M,0.0,M,,0000*7E
$GPRMC,133007.000,A,4137.1638,N,00023.9569,E,073.40,0.0,160410,,,E*51
$GPGGA,133008.000,4137.1457,N,00023.9659,E,1,00,,0278.1,M,0.0,M,,0000*73
$GPRMC,133008.000,A,4137.1457,N,00023.9659,E,063.55,0.0,160410,,,E*50
$GPGGA,133009.000,4137.1297,N,00023.9714,E,1,00,,0278.6,M,0.0,M,,0000*77
$GPRMC,133009.000,A,4137.1297,N,00023.9714,E,055.65,0.0,160410,,,E*55
$GPGGA,133010.000,4137.1152,N,00023.9718,E,1,00,,0279.2,M,0.0,M,,0000*7C
$GPRMC,133010.000,A,4137.1152,N,00023.9718,E,049.81,0.0,160410,,,E*5C
$GPGGA,133011.000,4137.1022,N,00023.9661,E,1,00,,0279.7,M,0.0,M,,0000*71
$GPRMC,133011.000,A,4137.1022,N,00023.9661,E,048.61,0.0,160410,,,E*5B
$GPGGA,133012.000,4137.0921,N,00023.9545,E,1,00,,0279.9,M,0.0,M,,0000*72
$GPRMC,133012.000,A,4137.0921,N,00023.9545,E,049.85,0.0,160410,,,E*5D
$GPGGA,133013.000,4137.0853,N,00023.9383,E,1,00,,0279.7,M,0.0,M,,0000*75
$GPRMC,133013.000,A,4137.0853,N,00023.9383,E,050.59,0.0,160410,,,E*5D
$GPGGA,133014.000,4137.0834,N,00023.9198,E,1,00,,0279.1,M,0.0,M,,0000*7D
$GPRMC,133014.000,A,4137.0834,N,00023.9198,E,050.61,0.0,160410,,,E*58
$GPGGA,133015.000,4137.0864,N,00023.9015,E,1,00,,0277.8,M,0.0,M,,0000*7A
$GPRMC,133015.000,A,4137.0864,N,00023.9015,E,051.32,0.0,160410,,,E*5F
$GPGGA,133016.000,4137.0944,N,00023.8855,E,1,00,,0276.5,M,0.0,M,,0000*7B
$GPRMC,133016.000,A,4137.0944,N,00023.8855,E,052.07,0.0,160410,,,E*57
$GPGGA,133017.000,4137.1061,N,00023.8737,E,1,00,,0275.4,M,0.0,M,,0000*7C
$GPRMC,133017.000,A,4137.1061,N,00023.8737,E,053.21,0.0,160410,,,E*57
$GPGGA,133018.000,4137.1203,N,00023.8679,E,1,00,,0274.5,M,0.0,M,,0000*7E
$GPRMC,133018.000,A,4137.1203,N,00023.8679,E,054.20,0.0,160410,,,E*53
$GPGGA,133019.000,4137.1352,N,00023.8685,E,1,00,,0273.8,M,0.0,M,,0000*73
$GPRMC,133019.000,A,4137.1352,N,00023.8685,E,051.58,0.0,160410,,,E*5E
$GPGGA,133020.000,4137.1487,N,00023.8736,E,1,00,,0273.3,M,0.0,M,,0000*74
$GPRMC,133020.000,A,4137.1487,N,00023.8736,E,048.90,0.0,160410,,,E*5E
$GPGGA,133021.000,4137.1608,N,00023.8799,E,1,00,,0273.0,M,0.0,M,,0000*76
$GPRMC,133021.000,A,4137.1608,N,00023.8799,E,044.72,0.0,160410,,,E*5F
$GPGGA,133022.000,4137.1725,N,00023.8834,E,1,00,,0272.9,M,0.0,M,,0000*7B
$GPRMC,133022.000,A,4137.1725,N,00023.8834,E,039.54,0.0,160410,,,E*54
$GPGGA,133023.000,4137.1825,N,00023.8817,E,1,00,,0272.7,M,0.0,M,,0000*7A
$GPRMC,133023.000,A,4137.1825,N,00023.8817,E,035.54,0.0,160410,,,E*57
$GPGGA,133024.000,4137.1912,N,00023.8745,E,1,00,,0272.5,M,0.0,M,,0000*72
$GPRMC,133024.000,A,4137.1912,N,00023.8745,E,037.62,0.0,160410,,,E*5A
$GPGGA,133025.000,4137.1992,N,00023.8650,E,1,00,,0271.9,M,0.0,M,,0000*71
$GPRMC,133025.000,A,4137.1992,N,00023.8650,E,037.86,0.0,160410,,,E*5C
$GPGGA,133026.000,4137.2084,N,00023.8580,E,1,00,,0271.7,M,0.0,M,,0000*7F
$GPRMC,133026.000,A,4137.2084,N,00023.8580,E,038.94,0.0,160410,,,E*50
$GPGGA,133027.000,4137.2198,N,00023.8562,E,1,00,,0271.6,M,0.0,M,,0000*7F
$GPRMC,133027.000,A,4137.2198,N,00023.8562,E,044.69,0.0,160410,,,E*58
$GPGGA,133028.000,4137.2334,N,00023.8600,E,1,00,,0271.8,M,0.0,M,,0000*7D
$GPRMC,133028.000,A,4137.2334,N,00023.8600,E,055.26,0.0,160410,,,E*5F
$GPGGA,133029.000,4137.2485,N,00023.8680,E,1,00,,0272.3,M,0.0,M,,0000*71
$GPRMC,133029.000,A,4137.2485,N,00023.8680,E,059.27,0.0,160410,,,E*56
$GPGGA,133030.000,4137.2626,N,00023.8773,E,1,00,,0272.7,M,0.0,M,,0000*7B
$GPRMC,133030.000,A,4137.2626,N,00023.8773,E,054.43,0.0,160410,,,E*57
$GPGGA,133031.000,4137.2762,N,00023.8848,E,1,00,,0272.9,M,0.0,M,,0000*72
$GPRMC,133031.000,A,4137.2762,N,00023.8848,E,047.52,0.0,160410,,,E*52
$GPGGA,133032.000,4137.2881,N,00023.8884,E,1,00,,0272.9,M,0.0,M,,0000*73
$GPRMC,133032.000,A,4137.2881,N,00023.8884,E,040.93,0.0,160410,,,E*59
$GPGGA,133033.000,4137.2986,N,00023.8871,E,1,00,,0272.7,M,0.0,M,,0000*70
$GPRMC,133033.000,A,4137.2986,N,00023.8871,E,035.88,0.0,160410,,,E*5C
$GPGGA,133034.000,4137.3068,N,00023.8804,E,1,00,,0272.2,M,0.0,M,,0000*78
$GPRMC,133034.000,A,4137.3068,N,00023.8804,E,034.26,0.0,160410,,,E*54
$GPGGA,133035.000,4137.3116,N,00023.8687,E,1,00,,0271.5,M,0.0,M,,0000*70
$GPRMC,133035.000,A,4137.3116,N,00023.8687,E,039.21,0.0,160410,,,E*52
$GPGGA,133036.000,4137.3130,N,00023.8525,E,1,00,,0270.6,M,0.0,M,,0000*7E
$GPRMC,133036.000,A,4137.3130,N,00023.8525,E,048.41,0.0,160410,,,E*5E
$GPGGA,133037.000,4137.3114,N,00023.8336,E,1,00,,0269.4,M,0.0,M,,0000*77
$GPRMC,133037.000,A,4137.3114,N,00023.8336,E,053.72,0.0,160410,,,E*57
$GPGGA,133038.000,4137.3071,N,00023.8152,E,1,00,,0268.2,M,0.0,M,,0000*7D
