$GPGGA,122429.000,4055.9715,N,00050.4598,E,1,00,,0072.1,M,0.0,M,,0000*73
$GPRMC,122429.000,A,4055.9715,N,00050.4598,E,000.00,0.0,020509,,,E*51
$GPGGA,122430.000,4055.9769,N,00050.4593,E,1,00,,0083.1,M,0.0,M,,0000*75
$GPRMC,122430.000,A,4055.9769,N,00050.4593,E,000.00,0.0,020509,,,E*59
$GPGGA,122431.000,4055.9792,N,00050.4585,E,1,00,,0084.4,M,0.0,M,,0000*75
$GPRMC,122431.000,A,4055.9792,N,00050.4585,E,000.00,0.0,020509,,,E*5B
$GPGGA,122432.000,4055.9795,N,00050.4586,E,1,00,,0085.9,M,0.0,M,,0000*7E
$GPRMC,122432.000,A,4055.9795,N,00050.4586,E,000.00,0.0,020509,,,E*5C
$GPGGA,122433.000,4055.9795,N,00050.4587,E,1,00,,0085.9,M,0.0,M,,0000*7E
$GPRMC,122433.000,A,4055.9795,N,00050.4587,E,000.00,0.0,020509,,,E*5C
$GPGGA,122434.000,4055.9795,N,00050.4589,E,1,00,,0086.3,M,0.0,M,,0000*7E
$GPRMC,122434.000,A,4055.9795,N,00050.4589,E,000.00,0.0,020509,,,E*55
$GPGGA,122435.000,4055.9795,N,00050.4589,E,1,00,,0086.6,M,0.0,M,,0000*7A
$GPRMC,122435.000,A,4055.9795,N,00050.4589,E,000.00,0.0,020509,,,E*54
$GPGGA,122436.000,4055.9795,N,00050.4590,E,1,00,,0086.8,M,0.0,M,,0000*7F
$GPRMC,122436.000,A,4055.9795,N,00050.4590,E,000.00,0.0,020509,,,E*5F
$GPGGA,122437.000,4055.9795,N,00050.4591,E,1,00,,0087.1,M,0.0,M,,0000*77
$GPRMC,122437.000,A,4055.9795,N,00050.4591,E,000.00,0.0,020509,,,E*5F
$GPGGA,122438.000,4055.9795,N,00050.4591,E,1,00,,0087.4,M,0.0,M,,0000*7D
$GPRMC,122438.000,A,4055.9795,N,00050.4591,E,000.00,0.0,020509,,,E*50
$GPGGA,122439.000,4055.9795,N,00050.4591,E,1,00,,0087.5,M,0.0,M,,0000*7D
$GPRMC,122439.000,A,4055.9795,N,00050.4591,E,000.00,0.0,020509,,,E*51
$GPGGA,122440.000,4055.9795,N,00050.4591,E,1,00,,0087.6,M,0.0,M,,0000*70
$GPRMC,122440.000,A,4055.9795,N,00050.4591,E,000.00,0.0,020509,,,E*5F
$GPGGA,122441.000,4055.9795,N,00050.4592,E,1,00,,0087.7,M,0.0,M,,0000*73
$GPRMC,122441.000,A,4055.9795,N,00050.4592,E,000.00,0.0,020509,,,E*5D
$GPGGA,122442.000,4055.9795,N,00050.4592,E,1,00,,0087.7,M,0.0,M,,0000*70
$GPRMC,122442.000,A,4055.9795,N,00050.4592,E,000.00,0.0,020509,,,E*5E
$GPGGA,122443.000,4055.9795,N,00050.4592,E,1,00,,0087.8,M,0.0,M,,0000*7E
$GPRMC,122443.000,A,4055.9795,N,00050.4592,E,000.00,0.0,020509,,,E*5F
$GPGGA,122444.000,4055.9795,N,00050.4593,E,1,00,,0087.8,M,0.0,M,,0000*78
$GPRMC,122444.000,A,4055.9795,N,00050.4593,E,000.00,0.0,020509,,,E*59
$GPGGA,122445.000,4055.9795,N,00050.4593,E,1,00,,0087.8,M,0.0,M,,0000*79
$GPRMC,122445.000,A,4055.9795,N,00050.4593,E,000.00,0.0,020509,,,E*58
$GPGGA,122446.000,4055.9795,N,00050.4593,E,1,00,,0088.0,M,0.0,M,,0000*7D
$GPRMC,122446.000,A,4055.9795,N,00050.4593,E,000.00,0.0,020509,,,E*5B
$GPGGA,122447.000,4055.9795,N,00050.4593,E,1,00,,0088.1,M,0.0,M,,0000*7D
$GPRMC,122447.000,A,4055.9795,N,00050.4593,E,000.00,0.0,020509,,,E*5A
$GPGGA,122448.000,4055.9795,N,00050.4593,E,1,00,,0088.3,M,0.0,M,,0000*70
$GPRMC,122448.000,A,4055.9795,N,00050.4593,E,000.00,0.0,020509,,,E*55
$GPGGA,122449.000,4055.9795,N,00050.4593,E,1,00,,0088.5,M,0.0,M,,0000*77
$GPRMC,122449.000,A,4055.9795,N,00050.4593,E,000.00,0.0,020509,,,E*54
$GPGGA,122450.000,4055.9795,N,00050.4593,E,1,00,,0088.7,M,0.0,M,,0000*7D
$GPRMC,122450.000,A,4055.9795,N,00050.4593,E,000.00,0.0,020509,,,E*5C
$GPGGA,122451.000,4055.9795,N,00050.4593,E,1,00,,0088.7,M,0.0,M,,0000*7C
$GPRMC,122451.000,A,4055.9795,N,00050.4593,E,000.00,0.0,020509,,,E*5D
$GPGGA,122452.000,4055.9795,N,00050.4593,E,1,00,,0088.7,M,0.0,M,,0000*7F
$GPRMC,122452.000,A,4055.9795,N,00050.4593,E,000.00,0.0,020509,,,E*5E
$GPGGA,122453.000,4055.9795,N,00050.4594,E,1,00,,0088.7,M,0.0,M,,0000*79
$GPRMC,122453.000,A,4055.9795,N,00050.4594,E,000.00,0.0,020509,,,E*58
$GPGGA,122454.000,4055.9795,N,00050.4594,E,1,00,,0088.9,M,0.0,M,,0000*70
$GPRMC,122454.000,A,4055.9795,N,00050.4594,E,000.00,0.0,020509,,,E*5F
$GPGGA,122455.000,4055.9795,N,00050.4594,E,1,00,,0089.1,M,0.0,M,,0000*78
$GPRMC,122455.000,A,4055.9795,N,00050.4594,E,000.00,0.0,020509,,,E*5E
$GPGGA,122456.000,4055.9795,N,00050.4593,E,1,00,,0089.3,M,0.0,M,,0000*7E
$GPRMC,122456.000,A,4055.9795,N,00050.4593,E,000.00,0.0,020509,,,E*5A
$GPGGA,122457.000,4055.9795,N,00050.4593,E,1,00,,0089.5,M,0.0,M,,0000*79
$GPRMC,122457.000,A,4055.9795,N,00050.4593,E,000.00,0.0,020509,,,E*5B
$GPGGA,122458.000,4055.9795,N,00050.4593,E,1,00,,0089.7,M,0.0,M,,0000*74
$GPRMC,122458.000,A,4055.9795,N,00050.4593,E,000.00,0.0,020509,,,E*54
$GPGGA,122459.000,4055.9795,N,00050.4593,E,1,00,,0089.9,M,0.0,M,,0000*7B
$GPRMC,122459.000,A,4055.9795,N,00050.4593,E,000.00,0.0,020509,,,E*55
$GPGGA,122500.000,4055.9797,N,00050.4593,E,1,00,,0090.1,M,0.0,M,,0000*74
$GPRMC,122500.000,A,4055.9797,N,00050.4593,E,000.00,0.0,020509,,,E*5A
$GPGGA,122501.000,4055.9797,N,00050.4593,E,1,00,,0090.3,M,0.0,M,,0000*77
$GPRMC,122501.000,A,4055.9797,N,00050.4593,E,000.00,0.0,020509,,,E*5B
$GPGGA,122502.000,4055.9797,N,00050.4593,E,1,00,,0090.5,M,0.0,M,,0000*72
$GPRMC,122502.000,A,4055.9797,N,00050.4593,E,000.00,0.0,020509,,,E*58
$GPGGA,122503.000,4055.9797,N,00050.4593,E,1,00,,0090.6,M,0.0,M,,0000*70
$GPRMC,122503.000,A,4055.9797,N,00050.4593,E,000.00,0.0,020509,,,E*59
$GPGGA,122504.000,4055.9797,N,00050.4593,E,1,00,,0090.6,M,0.0,M,,0000*77
$GPRMC,122504.000,A,4055.9797,N,00050.4593,E,000.00,0.0,020509,,,E*5E
$GPGGA,122505.000,4055.9797,N,00050.4593,E,1,00,,0090.7,M,0.0,M,,0000*77
$GPRMC,122505.000,A,4055.9797,N,00050.4593,E,000.00,0.0,020509,,,E*5F
$GPGGA,122506.000,4055.9797,N,00050.4594,E,1,00,,0090.7,M,0.0,M,,0000*73
$GPRMC,122506.000,A,4055.9797,N,00050.4594,E,000.00,0.0,020509,,,E*5B
$GPGGA,122507.000,4055.9797,N,00050.4594,E,1,00,,0090.8,M,0.0,M,,0000*7D
$GPRMC,122507.000,A,4055.9797,N,00050.4594,E,000.00,0.0,020509,,,E*5A
$GPGGA,122517.000,4055.9797,N,00050.4595,E,1,00,,0091.0,M,0.0,M,,0000*74
$GPRMC,122517.000,A,4055.9797,N,00050.4595,E,000.00,0.0,020509,,,E*5A
$GPGGA,122518.000,4055.9797,N,00050.4595,E,1,00,,0091.0,M,0.0,M,,0000*7B
$GPRMC,122518.000,A,4055.9797,N,00050.4595,E,000.00,0.0,020509,,,E*55
$GPGGA,122519.000,4055.9797,N,00050.4595,E,1,00,,0090.9,M,0.0,M,,0000*72
$GPRMC,122519.000,A,4055.9797,N,00050.4595,E,000.00,0.0,020509,,,E*54
$GPGGA,122520.000,4055.9797,N,00050.4595,E,1,00,,0090.9,M,0.0,M,,0000*78
$GPRMC,122520.000,A,4055.9797,N,00050.4595,E,000.00,0.0,020509,,,E*5E
$GPGGA,122521.000,4055.9797,N,00050.4595,E,1,00,,0090.8,M,0.0,M,,0000*78
$GPRMC,122521.000,A,4055.9797,N,00050.4595,E,000.00,0.0,020509,,,E*5F
$GPGGA,122522.000,4055.9797,N,00050.4595,E,1,00,,0090.8,M,0.0,M,,0000*7B
$GPRMC,122522.000,A,4055.9797,N,00050.4595,E,000.00,0.0,020509,,,E*5C
$GPGGA,122523.000,4055.9797,N,00050.4595,E,1,00,,0090.7,M,0.0,M,,0000*75
$GPRMC,122523.000,A,4055.9797,N,00050.4595,E,000.00,0.0,020509,,,E*5D
$GPGGA,122524.000,4055.9797,N,00050.4594,E,1,00,,0090.7,M,0.0,M,,0000*73
$GPRMC,122524.000,A,4055.9797,N,00050.4594,E,000.00,0.0,020509,,,E*5B
$GPGGA,122525.000,4055.9799,N,00050.4594,E,1,00,,0090.6,M,0.0,M,,0000*7D
$GPRMC,122525.000,A,4055.9799,N,00050.4594,E,000.00,0.0,020509,,,E*54
$GPGGA,122526.000,4055.9799,N,00050.4594,E,1,00,,0090.6,M,0.0,M,,0000*7E
$GPRMC,122526.000,A,4055.9799,N,00050.4594,E,000.00,0.0,020509,,,E*57
$GPGGA,122527.000,4055.9799,N,00050.4594,E,1,00,,0090.6,M,0.0,M,,0000*7F
$GPRMC,122527.000,A,4055.9799,N,00050.4594,E,000.00,0.0,020509,,,E*56
$GPGGA,122528.000,4055.9799,N,00050.4594,E,1,00,,0090.5,M,0.0,M,,0000*73
$GPRMC,122528.000,A,4055.9799,N,00050.4594,E,000.00,0.0,020509,,,E*59
$GPGGA,122529.000,4055.9799,N,00050.4594,E,1,00,,0090.5,M,0.0,M,,0000*72
$GPRMC,122529.000,A,4055.9799,N,00050.4594,E,000.00,0.0,020509,,,E*58
$GPGGA,122530.000,4055.9799,N,00050.4593,E,1,00,,0090.4,M,0.0,M,,0000*7C
$GPRMC,122530.000,A,4055.9799,N,00050.4593,E,000.00,0.0,020509,,,E*57
$GPGGA,122531.000,4055.9799,N,00050.4593,E,1,00,,0090.4,M,0.0,M,,0000*7D
$GPRMC,122531.000,A,4055.9799,N,00050.4593,E,000.00,0.0,020509,,,E*56
$GPGGA,122532.000,4055.9799,N,00050.4593,E,1,00,,0090.4,M,0.0,M,,0000*7E
$GPRMC,122532.000,A,4055.9799,N,00050.4593,E,000.00,0.0,020509,,,E*55
$GPGGA,122533.000,4055.9799,N,00050.4594,E,1,00,,0090.4,M,0.0,M,,0000*78
$GPRMC,122533.000,A,4055.9799,N,00050.4594,E,000.00,0.0,020509,,,E*53
$GPGGA,122534.000,4055.9799,N,00050.4594,E,1,00,,0090.4,M,0.0,M,,0000*7F
$GPRMC,122534.000,A,4055.9799,N,00050.4594,E,000.00,0.0,020509,,,E*54
$GPGGA,122535.000,4055.9799,N,00050.4594,E,1,00,,0090.4,M,0.0,M,,0000*7E
$GPRMC,122535.000,A,4055.9799,N,00050.4594,E,000.00,0.0,020509,,,E*55
$GPGGA,122536.000,4055.9799,N,00050.4594,E,1,00,,0090.4,M,0.0,M,,0000*7D
$GPRMC,122536.000,A,4055.9799,N,00050.4594,E,000.00,0.0,020509,,,E*56
$GPGGA,122537.000,4055.9799,N,00050.4594,E,1,00,,0090.5,M,0.0,M,,0000*7D
$GPRMC,122537.000,A,4055.9799,N,00050.4594,E,000.00,0.0,020509,,,E*57
$GPGGA,122538.000,4055.9799,N,00050.4594,E,1,00,,0090.5,M,0.0,M,,0000*72
$GPRMC,122538.000,A,4055.9799,N,00050.4594,E,000.00,0.0,020509,,,E*58
$GPGGA,122539.000,4055.9799,N,00050.4594,E,1,00,,0090.6,M,0.0,M,,0000*70
$GPRMC,122539.000,A,4055.9799,N,00050.4594,E,000.00,0.0,020509,,,E*59
$GPGGA,122540.000,4055.9799,N,00050.4594,E,1,00,,0090.7,M,0.0,M,,0000*7F
$GPRMC,122540.000,A,4055.9799,N,00050.4594,E,000.00,0.0,020509,,,E*57
$GPGGA,122541.000,4055.9799,N,00050.4593,E,1,00,,0090.7,M,0.0,M,,0000*79
$GPRMC,122541.000,A,4055.9799,N,00050.4593,E,000.00,0.0,020509,,,E*51
$GPGGA,122542.000,4055.9799,N,00050.4593,E,1,00,,0090.7,M,0.0,M,,0000*7A
$GPRMC,122542.000,A,4055.9799,N,00050.4593,E,000.00,0.0,020509,,,E*52
$GPGGA,122543.000,4055.9799,N,00050.4593,E,1,00,,0090.7,M,0.0,M,,0000*7B
$GPRMC,122543.000,A,4055.9799,N,00050.4593,E,000.00,0.0,020509,,,E*53
$GPGGA,122544.000,4055.9799,N,00050.4593,E,1,00,,0090.7,M,0.0,M,,0000*7C
$GPRMC,122544.000,A,4055.9799,N,00050.4593,E,000.00,0.0,020509,,,E*54
$GPGGA,122545.000,4055.9801,N,00050.4593,E,1,00,,0090.7,M,0.0,M,,0000*73
$GPRMC,122545.000,A,4055.9801,N,00050.4593,E,000.00,0.0,020509,,,E*5B
$GPGGA,122546.000,4055.9801,N,00050.4593,E,1,00,,0090.7,M,0.0,M,,0000*70
$GPRMC,122546.000,A,4055.9801,N,00050.4593,E,000.00,0.0,020509,,,E*58
$GPGGA,122547.000,4055.9801,N,00050.4593,E,1,00,,0090.7,M,0.0,M,,0000*71
$GPRMC,122547.000,A,4055.9801,N,00050.4593,E,000.00,0.0,020509,,,E*59
$GPGGA,122548.000,4055.9801,N,00050.4593,E,1,00,,0090.7,M,0.0,M,,0000*7E
$GPRMC,122548.000,A,4055.9801,N,00050.4593,E,000.00,0.0,020509,,,E*56
$GPGGA,122549.000,4055.9801,N,00050.4593,E,1,00,,0090.7,M,0.0,M,,0000*7F
$GPRMC,122549.000,A,4055.9801,N,00050.4593,E,000.00,0.0,020509,,,E*57
$GPGGA,122550.000,4055.9801,N,00050.4593,E,1,00,,0090.7,M,0.0,M,,0000*77
$GPRMC,122550.000,A,4055.9801,N,00050.4593,E,000.00,0.0,020509,,,E*5F
$GPGGA,122551.000,4055.9801,N,00050.4593,E,1,00,,0090.7,M,0.0,M,,0000*76
$GPRMC,122551.000,A,4055.9801,N,00050.4593,E,000.00,0.0,020509,,,E*5E
$GPGGA,122552.000,4055.9801,N,00050.4593,E,1,00,,0090.8,M,0.0,M,,0000*7A
$GPRMC,122552.000,A,4055.9801,N,00050.4593,E,000.00,0.0,020509,,,E*5D
$GPGGA,122553.000,4055.9801,N,00050.4593,E,1,00,,0090.8,M,0.0,M,,0000*7B
$GPRMC,122553.000,A,4055.9801,N,00050.4593,E,000.00,0.0,020509,,,E*5C
$GPGGA,122554.000,4055.9801,N,00050.4593,E,1,00,,0090.8,M,0.0,M,,0000*7C
$GPRMC,122554.000,A,4055.9801,N,00050.4593,E,000.00,0.0,020509,,,E*5B
$GPGGA,122555.000,4055.9801,N,00050.4593,E,1,00,,0090.8,M,0.0,M,,0000*7D
$GPRMC,122555.000,A,4055.9801,N,00050.4593,E,000.00,0.0,020509,,,E*5A
$GPGGA,122556.000,4055.9801,N,00050.4593,E,1,00,,0090.8,M,0.0,M,,0000*7E
$GPRMC,122556.000,A,4055.9801,N,00050.4593,E,000.00,0.0,020509,,,E*59
$GPGGA,122557.000,4055.9801,N,00050.4593,E,1,00,,0090.8,M,0.0,M,,0000*7F
$GPRMC,122557.000,A,4055.9801,N,00050.4593,E,000.00,0.0,020509,,,E*58
$GPGGA,122558.000,4055.9801,N,00050.4592,E,1,00,,0090.8,M,0.0,M,,0000*71
$GPRMC,122558.000,A,4055.9801,N,00050.4592,E,000.00,0.0,020509,,,E*56
$GPGGA,122559.000,4055.9801,N,00050.4592,E,1,00,,0090.8,M,0.0,M,,0000*70
$GPRMC,122559.000,A,4055.9801,N,00050.4592,E,000.00,0.0,020509,,,E*57
$GPGGA,122600.000,4055.9801,N,00050.4592,E,1,00,,0090.7,M,0.0,M,,0000*70
$GPRMC,122600.000,A,4055.9801,N,00050.4592,E,000.00,0.0,020509,,,E*58
$GPGGA,122601.000,4055.9801,N,00050.4592,E,1,00,,0090.7,M,0.0,M,,0000*71
$GPRMC,122601.000,A,4055.9801,N,00050.4592,E,000.00,0.0,020509,,,E*59
$GPGGA,122602.000,4055.9801,N,00050.4592,E,1,00,,0090.7,M,0.0,M,,0000*72
$GPRMC,122602.000,A,4055.9801,N,00050.4592,E,000.00,0.0,020509,,,E*5A
$GPGGA,122603.000,4055.9801,N,00050.4592,E,1,00,,0090.7,M,0.0,M,,0000*73
$GPRMC,122603.000,A,4055.9801,N,00050.4592,E,000.00,0.0,020509,,,E*5B
$GPGGA,122604.000,4055.9801,N,00050.4592,E,1,00,,0090.7,M,0.0,M,,0000*74
$GPRMC,122604.000,A,4055.9801,N,00050.4592,E,000.00,0.0,020509,,,E*5C
$GPGGA,122605.000,4055.9801,N,00050.4592,E,1,00,,0090.7,M,0.0,M,,0000*75
$GPRMC,122605.000,A,4055.9801,N,00050.4592,E,000.00,0.0,020509,,,E*5D
$GPGGA,122606.000,4055.9801,N,00050.4592,E,1,00,,0090.8,M,0.0,M,,0000*79
$GPRMC,122606.000,A,4055.9801,N,00050.4592,E,000.00,0.0,020509,,,E*5E
$GPGGA,122607.000,4055.9801,N,00050.4592,E,1,00,,0090.8,M,0.0,M,,0000*78
$GPRMC,122607.000,A,4055.9801,N,00050.4592,E,000.00,0.0,020509,,,E*5F
$GPGGA,122608.000,4055.9801,N,00050.4592,E,1,00,,0090.8,M,0.0,M,,0000*77
$GPRMC,122608.000,A,4055.9801,N,00050.4592,E,000.00,0.0,020509,,,E*50
$GPGGA,122609.000,4055.9801,N,00050.4592,E,1,00,,0090.8,M,0.0,M,,0000*76
$GPRMC,122609.000,A,4055.9801,N,00050.4592,E,000.00,0.0,020509,,,E*51
$GPGGA,122610.000,4055.9801,N,00050.4592,E,1,00,,0090.9,M,0.0,M,,0000*7F
$GPRMC,122610.000,A,4055.9801,N,00050.4592,E,000.00,0.0,020509,,,E*59
$GPGGA,122611.000,4055.9801,N,00050.4592,E,1,00,,0090.9,M,0.0,M,,0000*7E
$GPRMC,122611.000,A,4055.9801,N,00050.4592,E,000.00,0.0,020509,,,E*58
$GPGGA,122612.000,4055.9801,N,00050.4592,E,1,00,,0091.0,M,0.0,M,,0000*75
$GPRMC,122612.000,A,4055.9801,N,00050.4592,E,000.00,0.0,020509,,,E*5B
$GPGGA,122613.000,4055.9801,N,00050.4592,E,1,00,,0091.0,M,0.0,M,,0000*74
$GPRMC,122613.000,A,4055.9801,N,00050.4592,E,000.00,0.0,020509,,,E*5A
$GPGGA,122614.000,4055.9801,N,00050.4592,E,1,00,,0091.1,M,0.0,M,,0000*72
$GPRMC,122614.000,A,4055.9801,N,00050.4592,E,000.00,0.0,020509,,,E*5D
$GPGGA,122615.000,4055.9801,N,00050.4592,E,1,00,,0091.1,M,0.0,M,,0000*73
$GPRMC,122615.000,A,4055.9801,N,00050.4592,E,000.00,0.0,020509,,,E*5C
$GPGGA,122616.000,4055.9801,N,00050.4592,E,1,00,,0091.2,M,0.0,M,,0000*73
$GPRMC,122616.000,A,4055.9801,N,00050.4592,E,000.00,0.0,020509,,,E*5F
$GPGGA,122617.000,4055.9801,N,00050.4593,E,1,00,,0091.2,M,0.0,M,,0000*73
$GPRMC,122617.000,A,4055.9801,N,00050.4593,E,000.00,0.0,020509,,,E*5F
$GPGGA,122618.000,4055.9801,N,00050.4593,E,1,00,,0091.2,M,0.0,M,,0000*7C
$GPRMC,122618.000,A,4055.9801,N,00050.4593,E,000.00,0.0,020509,,,E*50
$GPGGA,122619.000,4055.9801,N,00050.4593,E,1,00,,0091.3,M,0.0,M,,0000*7C
$GPRMC,122619.000,A,4055.9801,N,00050.4593,E,000.00,0.0,020509,,,E*51
$GPGGA,122620.000,4055.9801,N,00050.4593,E,1,00,,0091.3,M,0.0,M,,0000*76
$GPRMC,122620.000,A,4055.9801,N,00050.4593,E,000.00,0.0,020509,,,E*5B
$GPGGA,122621.000,4055.9801,N,00050.4593,E,1,00,,0091.3,M,0.0,M,,0000*77
$GPRMC,122621.000,A,4055.9801,N,00050.4593,E,000.00,0.0,020509,,,E*5A
$GPGGA,122622.000,4055.9801,N,00050.4593,E,1,00,,0091.4,M,0.0,M,,0000*73
$GPRMC,122622.000,A,4055.9801,N,00050.4593,E,000.00,0.0,020509,,,E*59
$GPGGA,122623.000,4055.9801,N,00050.4593,E,1,00,,0091.4,M,0.0,M,,0000*72
$GPRMC,122623.000,A,4055.9801,N,00050.4593,E,000.00,0.0,020509,,,E*58
$GPGGA,122624.000,4055.9801,N,00050.4593,E,1,00,,0091.4,M,0.0,M,,0000*75
$GPRMC,122624.000,A,4055.9801,N,00050.4593,E,000.00,0.0,020509,,,E*5F
$GPGGA,122625.000,4055.9801,N,00050.4593,E,1,00,,0091.5,M,0.0,M,,0000*75
$GPRMC,122625.000,A,4055.9801,N,00050.4593,E,000.00,0.0,020509,,,E*5E
$GPGGA,122626.000,4055.9801,N,00050.4593,E,1,00,,0091.5,M,0.0,M,,0000*76
$GPRMC,122626.000,A,4055.9801,N,00050.4593,E,000.00,0.0,020509,,,E*5D
$GPGGA,122627.000,4055.9801,N,00050.4593,E,1,00,,0091.5,M,0.0,M,,0000*77
$GPRMC,122627.000,A,4055.9801,N,00050.4593,E,000.00,0.0,020509,,,E*5C
$GPGGA,122628.000,4055.9801,N,00050.4593,E,1,00,,0091.6,M,0.0,M,,0000*7B
$GPRMC,122628.000,A,4055.9801,N,00050.4593,E,000.00,0.0,020509,,,E*53
$GPGGA,122629.000,4055.9801,N,00050.4593,E,1,00,,0091.6,M,0.0,M,,0000*7A
$GPRMC,122629.000,A,4055.9801,N,00050.4593,E,000.00,0.0,020509,,,E*52
$GPGGA,122630.000,4055.9801,N,00050.4594,E,1,00,,0091.6,M,0.0,M,,0000*75
$GPRMC,122630.000,A,4055.9801,N,00050.4594,E,000.00,0.0,020509,,,E*5D
$GPGGA,122631.000,4055.9801,N,00050.4594,E,1,00,,0091.6,M,0.0,M,,0000*74
$GPRMC,122631.000,A,4055.9801,N,00050.4594,E,000.00,0.0,020509,,,E*5C
$GPGGA,122632.000,4055.9801,N,00050.4594,E,1,00,,0091.6,M,0.0,M,,0000*77
$GPRMC,122632.000,A,4055.9801,N,00050.4594,E,000.00,0.0,020509,,,E*5F
$GPGGA,122633.000,4055.9801,N,00050.4594,E,1,00,,0091.7,M,0.0,M,,0000*77
$GPRMC,122633.000,A,4055.9801,N,00050.4594,E,000.00,0.0,020509,,,E*5E
$GPGGA,122634.000,4055.9801,N,00050.4594,E,1,00,,0091.7,M,0.0,M,,0000*70
$GPRMC,122634.000,A,4055.9801,N,00050.4594,E,000.00,0.0,020509,,,E*59
$GPGGA,122635.000,4055.9801,N,00050.4594,E,1,00,,0091.7,M,0.0,M,,0000*71
$GPRMC,122635.000,A,4055.9801,N,00050.4594,E,000.00,0.0,020509,,,E*58
$GPGGA,122636.000,4055.9801,N,00050.4594,E,1,00,,0091.8,M,0.0,M,,0000*7D
$GPRMC,122636.000,A,4055.9801,N,00050.4594,E,000.00,0.0,020509,,,E*5B
$GPGGA,122637.000,4055.9801,N,00050.4594,E,1,00,,0091.7,M,0.0,M,,0000*73
$GPRMC,122637.000,A,4055.9801,N,00050.4594,E,000.00,0.0,020509,,,E*5A
$GPGGA,122638.000,4055.9801,N,00050.4594,E,1,00,,0091.7,M,0.0,M,,0000*7C
$GPRMC,122638.000,A,4055.9801,N,00050.4594,E,000.00,0.0,020509,,,E*55
$GPGGA,122639.000,4055.9801,N,00050.4594,E,1,00,,0091.8,M,0.0,M,,0000*72
$GPRMC,122639.000,A,4055.9801,N,00050.4594,E,000.00,0.0,020509,,,E*54
$GPGGA,122640.000,4055.9801,N,00050.4594,E,1,00,,0091.7,M,0.0,M,,0000*73
$GPRMC,122640.000,A,4055.9801,N,00050.4594,E,000.00,0.0,020509,,,E*5A
$GPGGA,122641.000,4055.9801,N,00050.4595,E,1,00,,0091.8,M,0.0,M,,0000*7C
$GPRMC,122641.000,A,4055.9801,N,00050.4595,E,000.00,0.0,020509,,,E*5A
$GPGGA,122642.000,4055.9801,N,00050.4594,E,1,00,,0091.9,M,0.0,M,,0000*7F
$GPRMC,122642.000,A,4055.9801,N,00050.4594,E,000.00,0.0,020509,,,E*58
$GPGGA,122643.000,4055.9801,N,00050.4594,E,1,00,,0091.9,M,0.0,M,,0000*7E
$GPRMC,122643.000,A,4055.9801,N,00050.4594,E,000.00,0.0,020509,,,E*59
$GPGGA,122644.000,4055.9801,N,00050.4594,E,1,00,,0092.0,M,0.0,M,,0000*73
$GPRMC,122644.000,A,4055.9801,N,00050.4594,E,000.00,0.0,020509,,,E*5E
$GPGGA,122645.000,4055.9799,N,00050.4595,E,1,00,,0092.1,M,0.0,M,,0000*7C
$GPRMC,122645.000,A,4055.9799,N,00050.4595,E,000.00,0.0,020509,,,E*50
$GPGGA,122646.000,4055.9799,N,00050.4595,E,1,00,,0092.2,M,0.0,M,,0000*7C
$GPRMC,122646.000,A,4055.9799,N,00050.4595,E,000.00,0.0,020509,,,E*53
$GPGGA,122647.000,4055.9799,N,00050.4595,E,1,00,,0092.2,M,0.0,M,,0000*7D
$GPRMC,122647.000,A,4055.9799,N,00050.4595,E,000.00,0.0,020509,,,E*52
$GPGGA,122648.000,4055.9799,N,00050.4595,E,1,00,,0092.3,M,0.0,M,,0000*73
$GPRMC,122648.000,A,4055.9799,N,00050.4595,E,000.00,0.0,020509,,,E*5D
$GPGGA,122649.000,4055.9799,N,00050.4594,E,1,00,,0092.4,M,0.0,M,,0000*74
$GPRMC,122649.000,A,4055.9799,N,00050.4594,E,000.00,0.0,020509,,,E*5D
$GPGGA,122650.000,4055.9799,N,00050.4592,E,1,00,,0092.4,M,0.0,M,,0000*7A
$GPRMC,122650.000,A,4055.9799,N,00050.4592,E,000.00,0.0,020509,,,E*53
$GPGGA,122651.000,4055.9799,N,00050.4590,E,1,00,,0092.5,M,0.0,M,,0000*78
$GPRMC,122651.000,A,4055.9799,N,00050.4590,E,000.00,0.0,020509,,,E*50
$GPGGA,122652.000,4055.9799,N,00050.4590,E,1,00,,0092.6,M,0.0,M,,0000*78
$GPRMC,122652.000,A,4055.9799,N,00050.4590,E,000.00,0.0,020509,,,E*53
$GPGGA,122653.000,4055.9797,N,00050.4590,E,1,00,,0092.6,M,0.0,M,,0000*77
$GPRMC,122653.000,A,4055.9797,N,00050.4590,E,000.00,0.0,020509,,,E*5C
$GPGGA,122654.000,4055.9797,N,00050.4590,E,1,00,,0092.7,M,0.0,M,,0000*71
$GPRMC,122654.000,A,4055.9797,N,00050.4590,E,000.00,0.0,020509,,,E*5B
$GPGGA,122655.000,4055.9799,N,00050.4591,E,1,00,,0092.8,M,0.0,M,,0000*70
$GPRMC,122655.000,A,4055.9799,N,00050.4591,E,000.00,0.0,020509,,,E*55
$GPGGA,122656.000,4055.9804,N,00050.4597,E,1,00,,0092.9,M,0.0,M,,0000*7F
$GPRMC,122656.000,A,4055.9804,N,00050.4597,E,001.45,0.0,020509,,,E*5B
$GPGGA,122657.000,4055.9815,N,00050.4604,E,1,00,,0093.0,M,0.0,M,,0000*7F
$GPRMC,122657.000,A,4055.9815,N,00050.4604,E,003.11,0.0,020509,,,E*50
$GPGGA,122658.000,4055.9827,N,00050.4607,E,1,00,,0093.2,M,0.0,M,,0000*70
$GPRMC,122658.000,A,4055.9827,N,00050.4607,E,004.33,0.0,020509,,,E*5A
$GPGGA,122659.000,4055.9838,N,00050.4603,E,1,00,,0093.3,M,0.0,M,,0000*7A
$GPRMC,122659.000,A,4055.9838,N,00050.4603,E,004.59,0.0,020509,,,E*5D
$GPGGA,122700.000,4055.9847,N,00050.4595,E,1,00,,0093.4,M,0.0,M,,0000*74
$GPRMC,122700.000,A,4055.9847,N,00050.4595,E,004.07,0.0,020509,,,E*5F
$GPGGA,122701.000,4055.9854,N,00050.4587,E,1,00,,0093.5,M,0.0,M,,0000*75
$GPRMC,122701.000,A,4055.9854,N,00050.4587,E,003.60,0.0,020509,,,E*59
$GPGGA,122702.000,4055.9861,N,00050.4580,E,1,00,,0093.6,M,0.0,M,,0000*74
$GPRMC,122702.000,A,4055.9861,N,00050.4580,E,003.18,0.0,020509,,,E*54
$GPGGA,122703.000,4055.9866,N,00050.4574,E,1,00,,0093.8,M,0.0,M,,0000*77
$GPRMC,122703.000,A,4055.9866,N,00050.4574,E,002.70,0.0,020509,,,E*56
$GPGGA,122704.000,4055.9872,N,00050.4570,E,1,00,,0093.9,M,0.0,M,,0000*70
$GPRMC,122704.000,A,4055.9872,N,00050.4570,E,002.30,0.0,020509,,,E*54
$GPGGA,122705.000,4055.9877,N,00050.4565,E,1,00,,0094.0,M,0.0,M,,0000*7E
$GPRMC,122705.000,A,4055.9877,N,00050.4565,E,002.54,0.0,020509,,,E*56
$GPGGA,122706.000,4055.9888,N,00050.4556,E,1,00,,0094.2,M,0.0,M,,0000*7F
$GPRMC,122706.000,A,4055.9888,N,00050.4556,E,003.53,0.0,020509,,,E*53
$GPGGA,122707.000,4055.9898,N,00050.4543,E,1,00,,0094.5,M,0.0,M,,0000*7C
$GPRMC,122707.000,A,4055.9898,N,00050.4543,E,005.47,0.0,020509,,,E*54
$GPGGA,122708.000,4055.9911,N,00050.4531,E,1,00,,0094.8,M,0.0,M,,0000*7B
$GPRMC,122708.000,A,4055.9911,N,00050.4531,E,005.01,0.0,020509,,,E*5C
$GPGGA,122709.000,4055.9918,N,00050.4520,E,1,00,,0095.0,M,0.0,M,,0000*7A
$GPRMC,122709.000,A,4055.9918,N,00050.4520,E,004.78,0.0,020509,,,E*5B
$GPGGA,122710.000,4055.9930,N,00050.4509,E,1,00,,0095.1,M,0.0,M,,0000*72
$GPRMC,122710.000,A,4055.9930,N,00050.4509,E,005.50,0.0,020509,,,E*59
$GPGGA,122711.000,4055.9946,N,00050.4505,E,1,00,,0095.1,M,0.0,M,,0000*7E
$GPRMC,122711.000,A,4055.9946,N,00050.4505,E,006.37,0.0,020509,,,E*57
$GPGGA,122712.000,4055.9962,N,00050.4510,E,1,00,,0095.2,M,0.0,M,,0000*7C
$GPRMC,122712.000,A,4055.9962,N,00050.4510,E,006.09,0.0,020509,,,E*5B
$GPGGA,122713.000,4055.9980,N,00050.4522,E,1,00,,0095.3,M,0.0,M,,0000*71
$GPRMC,122713.000,A,4055.9980,N,00050.4522,E,007.80,0.0,020509,,,E*57
$GPGGA,122714.000,4055.9998,N,00050.4541,E,1,00,,0095.4,M,0.0,M,,0000*7D
$GPRMC,122714.000,A,4055.9998,N,00050.4541,E,009.66,0.0,020509,,,E*5A
$GPGGA,122715.000,4056.0021,N,00050.4565,E,1,00,,0095.5,M,0.0,M,,0000*7A
$GPRMC,122715.000,A,4056.0021,N,00050.4565,E,010.79,0.0,020509,,,E*5A
$GPGGA,122716.000,4056.0046,N,00050.4594,E,1,00,,0095.6,M,0.0,M,,0000*75
$GPRMC,122716.000,A,4056.0046,N,00050.4594,E,012.81,0.0,020509,,,E*53
$GPGGA,122717.000,4056.0076,N,00050.4630,E,1,00,,0095.7,M,0.0,M,,0000*7B
$GPRMC,122717.000,A,4056.0076,N,00050.4630,E,016.09,0.0,020509,,,E*58
$GPGGA,122718.000,4056.0113,N,00050.4671,E,1,00,,0095.9,M,0.0,M,,0000*7D
$GPRMC,122718.000,A,4056.0113,N,00050.4671,E,017.98,0.0,020509,,,E*59
$GPGGA,122719.000,4056.0152,N,00050.4715,E,1,00,,0096.1,M,0.0,M,,0000*71
$GPRMC,122719.000,A,4056.0152,N,00050.4715,E,019.30,0.0,020509,,,E*52
$GPGGA,122720.000,4056.0193,N,00050.4759,E,1,00,,0096.5,M,0.0,M,,0000*7A
$GPRMC,122720.000,A,4056.0193,N,00050.4759,E,018.42,0.0,020509,,,E*59
$GPGGA,122721.000,4056.0229,N,00050.4797,E,1,00,,0096.8,M,0.0,M,,0000*76
$GPRMC,122721.000,A,4056.0229,N,00050.4797,E,014.72,0.0,020509,,,E*57
$GPGGA,122722.000,4056.0262,N,00050.4828,E,1,00,,0097.0,M,0.0,M,,0000*78
$GPRMC,122722.000,A,4056.0262,N,00050.4828,E,012.56,0.0,020509,,,E*50
$GPGGA,122723.000,4056.0291,N,00050.4857,E,1,00,,0097.2,M,0.0,M,,0000*7F
$GPRMC,122723.000,A,4056.0291,N,00050.4857,E,014.55,0.0,020509,,,E*50
$GPGGA,122724.000,4056.0332,N,00050.4892,E,1,00,,0097.3,M,0.0,M,,0000*78
$GPRMC,122724.000,A,4056.0332,N,00050.4892,E,020.03,0.0,020509,,,E*52
$GPGGA,122725.000,4056.0385,N,00050.4941,E,1,00,,0097.5,M,0.0,M,,0000*7C
$GPRMC,122725.000,A,4056.0385,N,00050.4941,E,026.72,0.0,020509,,,E*50
$GPGGA,122726.000,4056.0456,N,00050.5010,E,1,00,,0097.6,M,0.0,M,,0000*79
$GPRMC,122726.000,A,4056.0456,N,00050.5010,E,035.32,0.0,020509,,,E*50
$GPGGA,122727.000,4056.0541,N,00050.5111,E,1,00,,0097.7,M,0.0,M,,0000*7E
$GPRMC,122727.000,A,4056.0541,N,00050.5111,E,046.22,0.0,020509,,,E*53
$GPGGA,122728.000,4056.0641,N,00050.5238,E,1,00,,0097.7,M,0.0,M,,0000*7A
$GPRMC,122728.000,A,4056.0641,N,00050.5238,E,053.12,0.0,020509,,,E*50
$GPGGA,122729.000,4056.0754,N,00050.5377,E,1,00,,0097.7,M,0.0,M,,0000*74
$GPRMC,122729.000,A,4056.0754,N,00050.5377,E,056.35,0.0,020509,,,E*5E
$GPGGA,122730.000,4056.0875,N,00050.5523,E,1,00,,0097.7,M,0.0,M,,0000*77
$GPRMC,122730.000,A,4056.0875,N,00050.5523,E,059.84,0.0,020509,,,E*58
$GPGGA,122731.000,4056.1005,N,00050.5676,E,1,00,,0097.8,M,0.0,M,,0000*74
$GPRMC,122731.000,A,4056.1005,N,00050.5676,E,063.97,0.0,020509,,,E*5F
$GPGGA,122732.000,4056.1138,N,00050.5826,E,1,00,,0097.8,M,0.0,M,,0000*73
$GPRMC,122732.000,A,4056.1138,N,00050.5826,E,061.06,0.0,020509,,,E*52
$GPGGA,122733.000,4056.1275,N,00050.5958,E,1,00,,0097.5,M,0.0,M,,0000*7D
$GPRMC,122733.000,A,4056.1275,N,00050.5958,E,059.64,0.0,020509,,,E*5E
$GPGGA,122734.000,4056.1420,N,00050.6063,E,1,00,,0097.4,M,0.0,M,,0000*7F
$GPRMC,122734.000,A,4056.1420,N,00050.6063,E,057.70,0.0,020509,,,E*56
$GPGGA,122735.000,4056.1564,N,00050.6138,E,1,00,,0097.5,M,0.0,M,,0000*71
$GPRMC,122735.000,A,4056.1564,N,00050.6138,E,053.81,0.0,020509,,,E*53
$GPGGA,122736.000,4056.1701,N,00050.6188,E,1,00,,0097.4,M,0.0,M,,0000*79
$GPRMC,122736.000,A,4056.1701,N,00050.6188,E,048.18,0.0,020509,,,E*50
$GPGGA,122737.000,4056.1825,N,00050.6222,E,1,00,,0097.0,M,0.0,M,,0000*76
$GPRMC,122737.000,A,4056.1825,N,00050.6222,E,041.81,0.0,020509,,,E*52
$GPGGA,122738.000,4056.1928,N,00050.6252,E,1,00,,0096.6,M,0.0,M,,0000*75
$GPRMC,122738.000,A,4056.1928,N,00050.6252,E,034.49,0.0,020509,,,E*50
$GPGGA,122739.000,4056.2012,N,00050.6287,E,1,00,,0096.1,M,0.0,M,,0000*78
$GPRMC,122739.000,A,4056.2012,N,00050.6287,E,029.53,0.0,020509,,,E*5D
$GPGGA,122740.000,4056.2072,N,00050.6342,E,1,00,,0095.5,M,0.0,M,,0000*7F
$GPRMC,122740.000,A,4056.2072,N,00050.6342,E,024.55,0.0,020509,,,E*56
$GPGGA,122741.000,4056.2097,N,00050.6420,E,1,00,,0094.9,M,0.0,M,,0000*7B
$GPRMC,122741.000,A,4056.2097,N,00050.6420,E,024.25,0.0,020509,,,E*58
$GPGGA,122742.000,4056.2072,N,00050.6505,E,1,00,,0094.5,M,0.0,M,,0000*79
$GPRMC,122742.000,A,4056.2072,N,00050.6505,E,027.90,0.0,020509,,,E*5B
$GPGGA,122743.000,4056.2001,N,00050.6572,E,1,00,,0094.3,M,0.0,M,,0000*7A
$GPRMC,122743.000,A,4056.2001,N,00050.6572,E,036.08,0.0,020509,,,E*5F
$GPGGA,122744.000,4056.1889,N,00050.6606,E,1,00,,0094.1,M,0.0,M,,0000*74
$GPRMC,122744.000,A,4056.1889,N,00050.6606,E,047.19,0.0,020509,,,E*55
$GPGGA,122745.000,4056.1742,N,00050.6606,E,1,00,,0094.2,M,0.0,M,,0000*7E
$GPRMC,122745.000,A,4056.1742,N,00050.6606,E,056.17,0.0,020509,,,E*52
$GPGGA,122746.000,4056.1575,N,00050.6569,E,1,00,,0094.3,M,0.0,M,,0000*70
$GPRMC,122746.000,A,4056.1575,N,00050.6569,E,064.02,0.0,020509,,,E*58
$GPGGA,122747.000,4056.1399,N,00050.6492,E,1,00,,0094.2,M,0.0,M,,0000*71
$GPRMC,122747.000,A,4056.1399,N,00050.6492,E,068.35,0.0,020509,,,E*50
$GPGGA,122748.000,4056.1223,N,00050.6371,E,1,00,,0093.9,M,0.0,M,,0000*78
$GPRMC,122748.000,A,4056.1223,N,00050.6371,E,071.77,0.0,020509,,,E*5B
$GPGGA,122749.000,4056.1063,N,00050.6216,E,1,00,,0094.1,M,0.0,M,,0000*70
$GPRMC,122749.000,A,4056.1063,N,00050.6216,E,070.47,0.0,020509,,,E*5E
$GPGGA,122750.000,4056.0921,N,00050.6050,E,1,00,,0094.1,M,0.0,M,,0000*76
$GPRMC,122750.000,A,4056.0921,N,00050.6050,E,064.07,0.0,020509,,,E*59
$GPGGA,122751.000,4056.0797,N,00050.5891,E,1,00,,0094.1,M,0.0,M,,0000*72
$GPRMC,122751.000,A,4056.0797,N,00050.5891,E,058.11,0.0,020509,,,E*55
$GPGGA,122752.000,4056.0690,N,00050.5748,E,1,00,,0094.1,M,0.0,M,,0000*7C
$GPRMC,122752.000,A,4056.0690,N,00050.5748,E,050.72,0.0,020509,,,E*56
$GPGGA,122753.000,4056.0598,N,00050.5625,E,1,00,,0094.2,M,0.0,M,,0000*7F
$GPRMC,122753.000,A,4056.0598,N,00050.5625,E,042.83,0.0,020509,,,E*5B
$GPGGA,122754.000,4056.0520,N,00050.5526,E,1,00,,0094.3,M,0.0,M,,0000*7A
$GPRMC,122754.000,A,4056.0520,N,00050.5526,E,034.24,0.0,020509,,,E*53
$GPGGA,122755.000,4056.0454,N,00050.5448,E,1,00,,0094.3,M,0.0,M,,0000*70
$GPRMC,122755.000,A,4056.0454,N,00050.5448,E,028.39,0.0,020509,,,E*58
$GPGGA,122756.000,4056.0392,N,00050.5387,E,1,00,,0094.2,M,0.0,M,,0000*7B
$GPRMC,122756.000,A,4056.0392,N,00050.5387,E,025.55,0.0,020509,,,E*55
$GPGGA,122757.000,4056.0328,N,00050.5348,E,1,00,,0093.9,M,0.0,M,,0000*74
$GPRMC,122757.000,A,4056.0328,N,00050.5348,E,025.06,0.0,020509,,,E*50
$GPGGA,122758.000,4056.0262,N,00050.5343,E,1,00,,0093.5,M,0.0,M,,0000*73
$GPRMC,122758.000,A,4056.0262,N,00050.5343,E,024.98,0.0,020509,,,E*5D
$GPGGA,122759.000,4056.0197,N,00050.5386,E,1,00,,0093.1,M,0.0,M,,0000*76
$GPRMC,122759.000,A,4056.0197,N,00050.5386,E,027.34,0.0,020509,,,E*59
$GPGGA,122800.000,4056.0163,N,00050.5478,E,1,00,,0093.0,M,0.0,M,,0000*79
$GPRMC,122800.000,A,4056.0163,N,00050.5478,E,030.84,0.0,020509,,,E*5A
$GPGGA,122801.000,4056.0170,N,00050.5596,E,1,00,,0092.9,M,0.0,M,,0000*73
$GPRMC,122801.000,A,4056.0170,N,00050.5596,E,035.65,0.0,020509,,,E*52
$GPGGA,122802.000,4056.0227,N,00050.5721,E,1,00,,0092.8,M,0.0,M,,0000*7E
$GPRMC,122802.000,A,4056.0227,N,00050.5721,E,043.60,0.0,020509,,,E*5A
$GPGGA,122803.000,4056.0326,N,00050.5852,E,1,00,,0092.9,M,0.0,M,,0000*75
$GPRMC,122803.000,A,4056.0326,N,00050.5852,E,055.67,0.0,020509,,,E*50
$GPGGA,122804.000,4056.0458,N,00050.6001,E,1,00,,0093.0,M,0.0,M,,0000*79
$GPRMC,122804.000,A,4056.0458,N,00050.6001,E,067.05,0.0,020509,,,E*51
$GPGGA,122805.000,4056.0607,N,00050.6170,E,1,00,,0093.1,M,0.0,M,,0000*76
$GPRMC,122805.000,A,4056.0607,N,00050.6170,E,072.66,0.0,020509,,,E*5E
$GPGGA,122806.000,4056.0754,N,00050.6343,E,1,00,,0093.3,M,0.0,M,,0000*72
$GPRMC,122806.000,A,4056.0754,N,00050.6343,E,068.14,0.0,020509,,,E*56
$GPGGA,122807.000,4056.0891,N,00050.6501,E,1,00,,0093.4,M,0.0,M,,0000*72
$GPRMC,122807.000,A,4056.0891,N,00050.6501,E,060.05,0.0,020509,,,E*59
$GPGGA,122808.000,4056.1015,N,00050.6630,E,1,00,,0093.4,M,0.0,M,,0000*79
$GPRMC,122808.000,A,4056.1015,N,00050.6630,E,053.14,0.0,020509,,,E*52
$GPGGA,122809.000,4056.1138,N,00050.6723,E,1,00,,0093.3,M,0.0,M,,0000*72
$GPRMC,122809.000,A,4056.1138,N,00050.6723,E,049.25,0.0,020509,,,E*57
$GPGGA,122810.000,4056.1266,N,00050.6782,E,1,00,,0093.6,M,0.0,M,,0000*7C
$GPRMC,122810.000,A,4056.1266,N,00050.6782,E,047.45,0.0,020509,,,E*54
$GPGGA,122811.000,4056.1390,N,00050.6828,E,1,00,,0093.6,M,0.0,M,,0000*7A
$GPRMC,122811.000,A,4056.1390,N,00050.6828,E,044.09,0.0,020509,,,E*59
$GPGGA,122812.000,4056.1500,N,00050.6882,E,1,00,,0093.5,M,0.0,M,,0000*75
$GPRMC,122812.000,A,4056.1500,N,00050.6882,E,040.64,0.0,020509,,,E*5A
$GPGGA,122813.000,4056.1596,N,00050.6954,E,1,00,,0093.1,M,0.0,M,,0000*75
$GPRMC,122813.000,A,4056.1596,N,00050.6954,E,037.82,0.0,020509,,,E*56
$GPGGA,122814.000,4056.1674,N,00050.7038,E,1,00,,0092.6,M,0.0,M,,0000*79
$GPRMC,122814.000,A,4056.1674,N,00050.7038,E,034.29,0.0,020509,,,E*5E
$GPGGA,122815.000,4056.1733,N,00050.7129,E,1,00,,0091.9,M,0.0,M,,0000*77
$GPRMC,122815.000,A,4056.1733,N,00050.7129,E,030.91,0.0,020509,,,E*5B
$GPGGA,122816.000,4056.1768,N,00050.7228,E,1,00,,0091.5,M,0.0,M,,0000*74
$GPRMC,122816.000,A,4056.1768,N,00050.7228,E,028.38,0.0,020509,,,E*5E
$GPGGA,122817.000,4056.1772,N,00050.7334,E,1,00,,0091.0,M,0.0,M,,0000*77
$GPRMC,122817.000,A,4056.1772,N,00050.7334,E,030.46,0.0,020509,,,E*58
$GPGGA,122818.000,4056.1736,N,00050.7442,E,1,00,,0090.5,M,0.0,M,,0000*7A
$GPRMC,122818.000,A,4056.1736,N,00050.7442,E,034.77,0.0,020509,,,E*57
$GPGGA,122819.000,4056.1655,N,00050.7526,E,1,00,,0090.2,M,0.0,M,,0000*7B
$GPRMC,122819.000,A,4056.1655,N,00050.7526,E,039.31,0.0,020509,,,E*5E
$GPGGA,122820.000,4056.1546,N,00050.7551,E,1,00,,0090.2,M,0.0,M,,0000*70
$GPRMC,122820.000,A,4056.1546,N,00050.7551,E,043.15,0.0,020509,,,E*5E
$GPGGA,122821.000,4056.1422,N,00050.7503,E,1,00,,0090.6,M,0.0,M,,0000*71
$GPRMC,122821.000,A,4056.1422,N,00050.7503,E,050.14,0.0,020509,,,E*58
$GPGGA,122822.000,4056.1289,N,00050.7394,E,1,00,,0090.8,M,0.0,M,,0000*73
$GPRMC,122822.000,A,4056.1289,N,00050.7394,E,061.07,0.0,020509,,,E*54
$GPGGA,122823.000,4056.1136,N,00050.7245,E,1,00,,0090.8,M,0.0,M,,0000*78
$GPRMC,122823.000,A,4056.1136,N,00050.7245,E,073.08,0.0,020509,,,E*53
$GPGGA,122824.000,4056.0960,N,00050.7073,E,1,00,,0090.6,M,0.0,M,,0000*7C
$GPRMC,122824.000,A,4056.0960,N,00050.7073,E,082.47,0.0,020509,,,E*5C
$GPGGA,122825.000,4056.0767,N,00050.6882,E,1,00,,0090.6,M,0.0,M,,0000*73
$GPRMC,122825.000,A,4056.0767,N,00050.6882,E,087.94,0.0,020509,,,E*58
$GPGGA,122826.000,4056.0577,N,00050.6681,E,1,00,,0090.5,M,0.0,M,,0000*7D
$GPRMC,122826.000,A,4056.0577,N,00050.6681,E,085.81,0.0,020509,,,E*53
$GPGGA,122827.000,4056.0401,N,00050.6483,E,1,00,,0090.5,M,0.0,M,,0000*7C
$GPRMC,122827.000,A,4056.0401,N,00050.6483,E,078.58,0.0,020509,,,E*54
$GPGGA,122828.000,4056.0252,N,00050.6301,E,1,00,,0090.6,M,0.0,M,,0000*7D
$GPRMC,122828.000,A,4056.0252,N,00050.6301,E,066.06,0.0,020509,,,E*52
$GPGGA,122829.000,4056.0133,N,00050.6139,E,1,00,,0090.7,M,0.0,M,,0000*70
$GPRMC,122829.000,A,4056.0133,N,00050.6139,E,054.86,0.0,020509,,,E*57
$GPGGA,122830.000,4056.0046,N,00050.5990,E,1,00,,0091.1,M,0.0,M,,0000*74
$GPRMC,122830.000,A,4056.0046,N,00050.5990,E,047.19,0.0,020509,,,E*50
$GPGGA,122831.000,4055.9971,N,00050.5855,E,1,00,,0091.1,M,0.0,M,,0000*7A
$GPRMC,122831.000,A,4055.9971,N,00050.5855,E,042.72,0.0,020509,,,E*56
$GPGGA,122832.000,4055.9888,N,00050.5750,E,1,00,,0091.2,M,0.0,M,,0000*77
$GPRMC,122832.000,A,4055.9888,N,00050.5750,E,040.77,0.0,020509,,,E*5F
$GPGGA,122833.000,4055.9776,N,00050.5705,E,1,00,,0090.7,M,0.0,M,,0000*7C
$GPRMC,122833.000,A,4055.9776,N,00050.5705,E,043.09,0.0,020509,,,E*5A
$GPGGA,122834.000,4055.9655,N,00050.5693,E,1,00,,0090.3,M,0.0,M,,0000*71
$GPRMC,122834.000,A,4055.9655,N,00050.5693,E,044.38,0.0,020509,,,E*56
$GPGGA,122835.000,4055.9529,N,00050.5664,E,1,00,,0090.0,M,0.0,M,,0000*73
$GPRMC,122835.000,A,4055.9529,N,00050.5664,E,047.79,0.0,020509,,,E*51
$GPGGA,122836.000,4055.9399,N,00050.5592,E,1,00,,0089.9,M,0.0,M,,0000*76
$GPRMC,122836.000,A,4055.9399,N,00050.5592,E,053.34,0.0,020509,,,E*59
$GPGGA,122837.000,4055.9275,N,00050.5497,E,1,00,,0089.7,M,0.0,M,,0000*7E
$GPRMC,122837.000,A,4055.9275,N,00050.5497,E,047.86,0.0,020509,,,E*53
$GPGGA,122838.000,4055.9174,N,00050.5407,E,1,00,,0089.5,M,0.0,M,,0000*78
$GPRMC,122838.000,A,4055.9174,N,00050.5407,E,039.33,0.0,020509,,,E*50
$GPGGA,122839.000,4055.9092,N,00050.5320,E,1,00,,0089.3,M,0.0,M,,0000*74
$GPRMC,122839.000,A,4055.9092,N,00050.5320,E,035.49,0.0,020509,,,E*5B
$GPGGA,122840.000,4055.9035,N,00050.5218,E,1,00,,0089.1,M,0.0,M,,0000*7F
$GPRMC,122840.000,A,4055.9035,N,00050.5218,E,034.79,0.0,020509,,,E*50
$GPGGA,122841.000,4055.9012,N,00050.5092,E,1,00,,0089.0,M,0.0,M,,0000*7A
$GPRMC,122841.000,A,4055.9012,N,00050.5092,E,036.92,0.0,020509,,,E*53
$GPGGA,122842.000,4055.9032,N,00050.4954,E,1,00,,0089.6,M,0.0,M,,0000*7F
$GPRMC,122842.000,A,4055.9032,N,00050.4954,E,040.77,0.0,020509,,,E*5A
$GPGGA,122843.000,4055.9092,N,00050.4825,E,1,00,,0090.3,M,0.0,M,,0000*7E
$GPRMC,122843.000,A,4055.9092,N,00050.4825,E,041.24,0.0,020509,,,E*51
$GPGGA,122844.000,4055.9165,N,00050.4712,E,1,00,,0090.7,M,0.0,M,,0000*7F
$GPRMC,122844.000,A,4055.9165,N,00050.4712,E,038.21,0.0,020509,,,E*5F
$GPGGA,122845.000,4055.9220,N,00050.4594,E,1,00,,0091.1,M,0.0,M,,0000*77
$GPRMC,122845.000,A,4055.9220,N,00050.4594,E,036.97,0.0,020509,,,E*53
$GPGGA,122846.000,4055.9238,N,00050.4467,E,1,00,,0091.5,M,0.0,M,,0000*74
$GPRMC,122846.000,A,4055.9238,N,00050.4467,E,034.56,0.0,020509,,,E*5B
$GPGGA,122847.000,4055.9216,N,00050.4341,E,1,00,,0091.8,M,0.0,M,,0000*77
$GPRMC,122847.000,A,4055.9216,N,00050.4341,E,036.62,0.0,020509,,,E*50
$GPGGA,122848.000,4055.9151,N,00050.4228,E,1,00,,0091.9,M,0.0,M,,0000*77
$GPRMC,122848.000,A,4055.9151,N,00050.4228,E,040.85,0.0,020509,,,E*59
$GPGGA,122849.000,4055.9067,N,00050.4117,E,1,00,,0091.9,M,0.0,M,,0000*7D
$GPRMC,122849.000,A,4055.9067,N,00050.4117,E,044.44,0.0,020509,,,E*5A
$GPGGA,122850.000,4055.8987,N,00050.3988,E,1,00,,0092.1,M,0.0,M,,0000*71
$GPRMC,122850.000,A,4055.8987,N,00050.3988,E,046.43,0.0,020509,,,E*58
$GPGGA,122851.000,4055.8913,N,00050.3841,E,1,00,,0092.0,M,0.0,M,,0000*78
$GPRMC,122851.000,A,4055.8913,N,00050.3841,E,048.83,0.0,020509,,,E*52
$GPGGA,122852.000,4055.8824,N,00050.3694,E,1,00,,0091.9,M,0.0,M,,0000*72
$GPRMC,122852.000,A,4055.8824,N,00050.3694,E,052.81,0.0,020509,,,E*5B
$GPGGA,122853.000,4055.8701,N,00050.3568,E,1,00,,0092.1,M,0.0,M,,0000*70
$GPRMC,122853.000,A,4055.8701,N,00050.3568,E,060.71,0.0,020509,,,E*5C
$GPGGA,122854.000,4055.8527,N,00050.3477,E,1,00,,0091.3,M,0.0,M,,0000*7F
$GPRMC,122854.000,A,4055.8527,N,00050.3477,E,070.60,0.0,020509,,,E*53
$GPGGA,122855.000,4055.8323,N,00050.3421,E,1,00,,0090.4,M,0.0,M,,0000*79
$GPRMC,122855.000,A,4055.8323,N,00050.3421,E,077.53,0.0,020509,,,E*54
$GPGGA,122856.000,4055.8110,N,00050.3400,E,1,00,,0089.7,M,0.0,M,,0000*70
$GPRMC,122856.000,A,4055.8110,N,00050.3400,E,075.12,0.0,020509,,,E*51
$GPGGA,122857.000,4055.7915,N,00050.3400,E,1,00,,0089.1,M,0.0,M,,0000*75
$GPRMC,122857.000,A,4055.7915,N,00050.3400,E,063.79,0.0,020509,,,E*58
$GPGGA,122858.000,4055.7753,N,00050.3399,E,1,00,,0088.6,M,0.0,M,,0000*77
$GPRMC,122858.000,A,4055.7753,N,00050.3399,E,051.08,0.0,020509,,,E*5B
$GPGGA,122859.000,4055.7625,N,00050.3379,E,1,00,,0088.1,M,0.0,M,,0000*7F
$GPRMC,122859.000,A,4055.7625,N,00050.3379,E,041.55,0.0,020509,,,E*5D
$GPGGA,122900.000,4055.7531,N,00050.3321,E,1,00,,0087.6,M,0.0,M,,0000*71
$GPRMC,122900.000,A,4055.7531,N,00050.3321,E,034.00,0.0,020509,,,E*59
$GPGGA,122901.000,4055.7485,N,00050.3223,E,1,00,,0087.6,M,0.0,M,,0000*7D
$GPRMC,122901.000,A,4055.7485,N,00050.3223,E,032.17,0.0,020509,,,E*55
$GPGGA,122902.000,4055.7494,N,00050.3101,E,1,00,,0088.2,M,0.0,M,,0000*76
$GPRMC,122902.000,A,4055.7494,N,00050.3101,E,036.71,0.0,020509,,,E*51
$GPGGA,122903.000,4055.7556,N,00050.2969,E,1,00,,0088.6,M,0.0,M,,0000*7B
$GPRMC,122903.000,A,4055.7556,N,00050.2969,E,047.46,0.0,020509,,,E*5A
$GPGGA,122904.000,4055.7661,N,00050.2821,E,1,00,,0089.0,M,0.0,M,,0000*71
$GPRMC,122904.000,A,4055.7661,N,00050.2821,E,059.69,0.0,020509,,,E*55
$GPGGA,122905.000,4055.7790,N,00050.2646,E,1,00,,0089.7,M,0.0,M,,0000*77
$GPRMC,122905.000,A,4055.7790,N,00050.2646,E,071.33,0.0,020509,,,E*51
$GPGGA,122906.000,4055.7927,N,00050.2455,E,1,00,,0090.4,M,0.0,M,,0000*7D
$GPRMC,122906.000,A,4055.7927,N,00050.2455,E,069.69,0.0,020509,,,E*56
$GPGGA,122907.000,4055.8055,N,00050.2281,E,1,00,,0090.9,M,0.0,M,,0000*7D
$GPRMC,122907.000,A,4055.8055,N,00050.2281,E,060.02,0.0,020509,,,E*5F
$GPGGA,122908.000,4055.8170,N,00050.2143,E,1,00,,0091.4,M,0.0,M,,0000*75
$GPRMC,122908.000,A,4055.8170,N,00050.2143,E,050.76,0.0,020509,,,E*5B
$GPGGA,122909.000,4055.8284,N,00050.2060,E,1,00,,0091.7,M,0.0,M,,0000*7F
$GPRMC,122909.000,A,4055.8284,N,00050.2060,E,043.63,0.0,020509,,,E*54
$GPGGA,122910.000,4055.8403,N,00050.2053,E,1,00,,0092.2,M,0.0,M,,0000*78
$GPRMC,122910.000,A,4055.8403,N,00050.2053,E,044.02,0.0,020509,,,E*55
$GPGGA,122911.000,4055.8520,N,00050.2126,E,1,00,,0092.9,M,0.0,M,,0000*71
$GPRMC,122911.000,A,4055.8520,N,00050.2126,E,049.99,0.0,020509,,,E*58
$GPGGA,122912.000,4055.8623,N,00050.2276,E,1,00,,0093.6,M,0.0,M,,0000*7A
$GPRMC,122912.000,A,4055.8623,N,00050.2276,E,058.34,0.0,020509,,,E*5A
$GPGGA,122913.000,4055.8705,N,00050.2494,E,1,00,,0093.8,M,0.0,M,,0000*7A
$GPRMC,122913.000,A,4055.8705,N,00050.2494,E,070.71,0.0,020509,,,E*5F
$GPGGA,122914.000,4055.8794,N,00050.2751,E,1,00,,0093.9,M,0.0,M,,0000*7E
$GPRMC,122914.000,A,4055.8794,N,00050.2751,E,079.22,0.0,020509,,,E*55
$GPGGA,122915.000,4055.8907,N,00050.3021,E,1,00,,0095.0,M,0.0,M,,0000*75
$GPRMC,122915.000,A,4055.8907,N,00050.3021,E,086.60,0.0,020509,,,E*57
$GPGGA,122916.000,4055.9053,N,00050.3291,E,1,00,,0095.3,M,0.0,M,,0000*75
$GPRMC,122916.000,A,4055.9053,N,00050.3291,E,092.13,0.0,020509,,,E*55
$GPGGA,122917.000,4055.9234,N,00050.3553,E,1,00,,0095.7,M,0.0,M,,0000*7A
$GPRMC,122917.000,A,4055.9234,N,00050.3553,E,098.48,0.0,020509,,,E*5A
$GPGGA,122918.000,4055.9442,N,00050.3810,E,1,00,,0096.0,M,0.0,M,,0000*7C
$GPRMC,122918.000,A,4055.9442,N,00050.3810,E,102.50,0.0,020509,,,E*53
$GPGGA,122919.000,4055.9660,N,00050.4065,E,1,00,,0096.4,M,0.0,M,,0000*76
$GPRMC,122919.000,A,4055.9660,N,00050.4065,E,105.69,0.0,020509,,,E*50
$GPGGA,122920.000,4055.9888,N,00050.4324,E,1,00,,0096.6,M,0.0,M,,0000*70
$GPRMC,122920.000,A,4055.9888,N,00050.4324,E,107.59,0.0,020509,,,E*55
$GPGGA,122921.000,4056.0117,N,00050.4590,E,1,00,,0096.8,M,0.0,M,,0000*73
$GPRMC,122921.000,A,4056.0117,N,00050.4590,E,109.18,0.0,020509,,,E*53
$GPGGA,122922.000,4056.0349,N,00050.4865,E,1,00,,0097.0,M,0.0,M,,0000*77
$GPRMC,122922.000,A,4056.0349,N,00050.4865,E,112.69,0.0,020509,,,E*52
$GPGGA,122923.000,4056.0582,N,00050.5148,E,1,00,,0097.0,M,0.0,M,,0000*70
$GPRMC,122923.000,A,4056.0582,N,00050.5148,E,112.49,0.0,020509,,,E*57
$GPGGA,122924.000,4056.0799,N,00050.5418,E,1,00,,0097.0,M,0.0,M,,0000*7F
$GPRMC,122924.000,A,4056.0799,N,00050.5418,E,100.37,0.0,020509,,,E*52
$GPGGA,122925.000,4056.0992,N,00050.5654,E,1,00,,0096.9,M,0.0,M,,0000*79
$GPRMC,122925.000,A,4056.0992,N,00050.5654,E,087.03,0.0,020509,,,E*55
$GPGGA,122926.000,4056.1166,N,00050.5852,E,1,00,,0096.8,M,0.0,M,,0000*71
$GPRMC,122926.000,A,4056.1166,N,00050.5852,E,076.79,0.0,020509,,,E*5F
$GPGGA,122927.000,4056.1330,N,00050.6011,E,1,00,,0096.4,M,0.0,M,,0000*71
$GPRMC,122927.000,A,4056.1330,N,00050.6011,E,069.24,0.0,020509,,,E*55
$GPGGA,122928.000,4056.1493,N,00050.6125,E,1,00,,0096.4,M,0.0,M,,0000*76
$GPRMC,122928.000,A,4056.1493,N,00050.6125,E,062.46,0.0,020509,,,E*5D
$GPGGA,122929.000,4056.1653,N,00050.6193,E,1,00,,0096.4,M,0.0,M,,0000*74
$GPRMC,122929.000,A,4056.1653,N,00050.6193,E,056.68,0.0,020509,,,E*54
$GPGGA,122930.000,4056.1795,N,00050.6233,E,1,00,,0096.0,M,0.0,M,,0000*7A
$GPRMC,122930.000,A,4056.1795,N,00050.6233,E,048.17,0.0,020509,,,E*59
$GPGGA,122931.000,4056.1916,N,00050.6262,E,1,00,,0095.3,M,0.0,M,,0000*7A
$GPRMC,122931.000,A,4056.1916,N,00050.6262,E,040.94,0.0,020509,,,E*5A
$GPGGA,122932.000,4056.2017,N,00050.6304,E,1,00,,0094.6,M,0.0,M,,0000*77
$GPRMC,122932.000,A,4056.2017,N,00050.6304,E,034.73,0.0,020509,,,E*59
$GPGGA,122933.000,4056.2083,N,00050.6376,E,1,00,,0094.1,M,0.0,M,,0000*79
$GPRMC,122933.000,A,4056.2083,N,00050.6376,E,028.42,0.0,020509,,,E*5F
$GPGGA,122934.000,4056.2093,N,00050.6476,E,1,00,,0093.5,M,0.0,M,,0000*7B
$GPRMC,122934.000,A,4056.2093,N,00050.6476,E,029.19,0.0,020509,,,E*51
$GPGGA,122935.000,4056.2042,N,00050.6568,E,1,00,,0093.2,M,0.0,M,,0000*7F
$GPRMC,122935.000,A,4056.2042,N,00050.6568,E,035.69,0.0,020509,,,E*58
$GPGGA,122936.000,4056.1937,N,00050.6626,E,1,00,,0093.2,M,0.0,M,,0000*7D
$GPRMC,122936.000,A,4056.1937,N,00050.6626,E,046.39,0.0,020509,,,E*5B
$GPGGA,122937.000,4056.1790,N,00050.6641,E,1,00,,0093.4,M,0.0,M,,0000*78
$GPRMC,122937.000,A,4056.1790,N,00050.6641,E,057.65,0.0,020509,,,E*51
$GPGGA,122938.000,4056.1614,N,00050.6608,E,1,00,,0093.7,M,0.0,M,,0000*74
$GPRMC,122938.000,A,4056.1614,N,00050.6608,E,067.57,0.0,020509,,,E*5C
$GPGGA,122939.000,4056.1427,N,00050.6525,E,1,00,,0093.6,M,0.0,M,,0000*7A
$GPRMC,122939.000,A,4056.1427,N,00050.6525,E,074.72,0.0,020509,,,E*56
$GPGGA,122940.000,4056.1232,N,00050.6386,E,1,00,,0093.7,M,0.0,M,,0000*78
$GPRMC,122940.000,A,4056.1232,N,00050.6386,E,082.12,0.0,020509,,,E*5A
$GPGGA,122941.000,4056.1044,N,00050.6196,E,1,00,,0093.9,M,0.0,M,,0000*77
$GPRMC,122941.000,A,4056.1044,N,00050.6196,E,085.85,0.0,020509,,,E*52
$GPGGA,122942.000,4056.0875,N,00050.5986,E,1,00,,0094.1,M,0.0,M,,0000*7A
$GPRMC,122942.000,A,4056.0875,N,00050.5986,E,078.80,0.0,020509,,,E*57
$GPGGA,122943.000,4056.0728,N,00050.5790,E,1,00,,0094.1,M,0.0,M,,0000*75
$GPRMC,122943.000,A,4056.0728,N,00050.5790,E,069.22,0.0,020509,,,E*50
$GPGGA,122944.000,4056.0600,N,00050.5624,E,1,00,,0094.1,M,0.0,M,,0000*77
$GPRMC,122944.000,A,4056.0600,N,00050.5624,E,057.98,0.0,020509,,,E*5E
$GPGGA,122945.000,4056.0490,N,00050.5495,E,1,00,,0094.0,M,0.0,M,,0000*74
$GPRMC,122945.000,A,4056.0490,N,00050.5495,E,047.31,0.0,020509,,,E*5E
$GPGGA,122946.000,4056.0387,N,00050.5408,E,1,00,,0093.7,M,0.0,M,,0000*72
$GPRMC,122946.000,A,4056.0387,N,00050.5408,E,039.17,0.0,020509,,,E*55
$GPGGA,122947.000,4056.0291,N,00050.5379,E,1,00,,0093.2,M,0.0,M,,0000*71
$GPRMC,122947.000,A,4056.0291,N,00050.5379,E,032.87,0.0,020509,,,E*51
$GPGGA,122948.000,4056.0211,N,00050.5414,E,1,00,,0092.7,M,0.0,M,,0000*7E
$GPRMC,122948.000,A,4056.0211,N,00050.5414,E,030.15,0.0,020509,,,E*53
$GPGGA,122949.000,4056.0168,N,00050.5501,E,1,00,,0092.5,M,0.0,M,,0000*75
$GPRMC,122949.000,A,4056.0168,N,00050.5501,E,030.29,0.0,020509,,,E*55
$GPGGA,122950.000,4056.0168,N,00050.5614,E,1,00,,0092.3,M,0.0,M,,0000*7C
$GPRMC,122950.000,A,4056.0168,N,00050.5614,E,033.34,0.0,020509,,,E*55
$GPGGA,122951.000,4056.0223,N,00050.5730,E,1,00,,0092.3,M,0.0,M,,0000*76
$GPRMC,122951.000,A,4056.0223,N,00050.5730,E,041.74,0.0,020509,,,E*5E
$GPGGA,122952.000,4056.0321,N,00050.5854,E,1,00,,0092.3,M,0.0,M,,0000*7B
$GPRMC,122952.000,A,4056.0321,N,00050.5854,E,054.23,0.0,020509,,,E*55
$GPGGA,122953.000,4056.0449,N,00050.6002,E,1,00,,0092.3,M,0.0,M,,0000*7B
$GPRMC,122953.000,A,4056.0449,N,00050.6002,E,067.07,0.0,020509,,,E*53
$GPGGA,122954.000,4056.0598,N,00050.6178,E,1,00,,0092.4,M,0.0,M,,0000*7A
$GPRMC,122954.000,A,4056.0598,N,00050.6178,E,075.65,0.0,020509,,,E*52
$GPGGA,122955.000,4056.0767,N,00050.6373,E,1,00,,0092.5,M,0.0,M,,0000*71
$GPRMC,122955.000,A,4056.0767,N,00050.6373,E,083.22,0.0,020509,,,E*52
$GPGGA,122956.000,4056.0944,N,00050.6561,E,1,00,,0092.4,M,0.0,M,,0000*79
$GPRMC,122956.000,A,4056.0944,N,00050.6561,E,077.71,0.0,020509,,,E*56
$GPGGA,122957.000,4056.1111,N,00050.6706,E,1,00,,0092.3,M,0.0,M,,0000*75
$GPRMC,122957.000,A,4056.1111,N,00050.6706,E,066.71,0.0,020509,,,E*5D
$GPGGA,122958.000,4056.1273,N,00050.6798,E,1,00,,0092.5,M,0.0,M,,0000*7C
$GPRMC,122958.000,A,4056.1273,N,00050.6798,E,059.13,0.0,020509,,,E*5A
$GPGGA,122959.000,4056.1431,N,00050.6860,E,1,00,,0091.9,M,0.0,M,,0000*7A
$GPRMC,122959.000,A,4056.1431,N,00050.6860,E,057.85,0.0,020509,,,E*52
$GPGGA,123000.000,4056.1571,N,00050.6939,E,1,00,,0091.4,M,0.0,M,,0000*7B
$GPRMC,123000.000,A,4056.1571,N,00050.6939,E,051.98,0.0,020509,,,E*54
$GPGGA,123001.000,4056.1678,N,00050.7048,E,1,00,,0090.8,M,0.0,M,,0000*73
$GPRMC,123001.000,A,4056.1678,N,00050.7048,E,046.90,0.0,020509,,,E*5F
$GPGGA,123002.000,4056.1752,N,00050.7177,E,1,00,,0090.0,M,0.0,M,,0000*7C
$GPRMC,123002.000,A,4056.1752,N,00050.7177,E,040.60,0.0,020509,,,E*51
$GPGGA,123003.000,4056.1770,N,00050.7311,E,1,00,,0089.5,M,0.0,M,,0000*72
$GPRMC,123003.000,A,4056.1770,N,00050.7311,E,035.84,0.0,020509,,,E*5A
$GPGGA,123004.000,4056.1733,N,00050.7434,E,1,00,,0089.0,M,0.0,M,,0000*77
$GPRMC,123004.000,A,4056.1733,N,00050.7434,E,037.41,0.0,020509,,,E*51
$GPGGA,123005.000,4056.1651,N,00050.7522,E,1,00,,0088.6,M,0.0,M,,0000*72
$GPRMC,123005.000,A,4056.1651,N,00050.7522,E,040.57,0.0,020509,,,E*54
$GPGGA,123006.000,4056.1536,N,00050.7552,E,1,00,,0088.6,M,0.0,M,,0000*74
$GPRMC,123006.000,A,4056.1536,N,00050.7552,E,043.99,0.0,020509,,,E*53
$GPGGA,123007.000,4056.1408,N,00050.7511,E,1,00,,0088.9,M,0.0,M,,0000*71
$GPRMC,123007.000,A,4056.1408,N,00050.7511,E,051.09,0.0,020509,,,E*53
$GPGGA,123008.000,4056.1269,N,00050.7411,E,1,00,,0088.9,M,0.0,M,,0000*7E
$GPRMC,123008.000,A,4056.1269,N,00050.7411,E,062.03,0.0,020509,,,E*56
$GPGGA,123009.000,4056.1111,N,00050.7267,E,1,00,,0088.9,M,0.0,M,,0000*74
$GPRMC,123009.000,A,4056.1111,N,00050.7267,E,073.89,0.0,020509,,,E*5E
$GPGGA,123010.000,4056.0932,N,00050.7096,E,1,00,,0088.7,M,0.0,M,,0000*76
$GPRMC,123010.000,A,4056.0932,N,00050.7096,E,081.73,0.0,020509,,,E*5A
$GPGGA,123011.000,4056.0742,N,00050.6900,E,1,00,,0088.6,M,0.0,M,,0000*78
$GPRMC,123011.000,A,4056.0742,N,00050.6900,E,089.80,0.0,020509,,,E*51
$GPGGA,123012.000,4056.0543,N,00050.6682,E,1,00,,0088.4,M,0.0,M,,0000*7F
$GPRMC,123012.000,A,4056.0543,N,00050.6682,E,093.57,0.0,020509,,,E*55
$GPGGA,123013.000,4056.0358,N,00050.6458,E,1,00,,0088.5,M,0.0,M,,0000*76
$GPRMC,123013.000,A,4056.0358,N,00050.6458,E,085.67,0.0,020509,,,E*59
$GPGGA,123014.000,4056.0202,N,00050.6247,E,1,00,,0088.7,M,0.0,M,,0000*75
$GPRMC,123014.000,A,4056.0202,N,00050.6247,E,072.85,0.0,020509,,,E*5C
$GPGGA,123015.000,4056.0081,N,00050.6056,E,1,00,,0089.0,M,0.0,M,,0000*79
$GPRMC,123015.000,A,4056.0081,N,00050.6056,E,061.96,0.0,020509,,,E*56
$GPGGA,123016.000,4055.9985,N,00050.5889,E,1,00,,0089.1,M,0.0,M,,0000*75
$GPRMC,123016.000,A,4055.9985,N,00050.5889,E,050.98,0.0,020509,,,E*57
$GPGGA,123017.000,4055.9893,N,00050.5770,E,1,00,,0088.6,M,0.0,M,,0000*7D
$GPRMC,123017.000,A,4055.9893,N,00050.5770,E,041.95,0.0,020509,,,E*54
$GPGGA,123018.000,4055.9785,N,00050.5716,E,1,00,,0088.5,M,0.0,M,,0000*79
$GPRMC,123018.000,A,4055.9785,N,00050.5716,E,042.07,0.0,020509,,,E*5B
$GPGGA,123019.000,4055.9657,N,00050.5701,E,1,00,,0088.2,M,0.0,M,,0000*77
$GPRMC,123019.000,A,4055.9657,N,00050.5701,E,049.42,0.0,020509,,,E*58
$GPGGA,123020.000,4055.9513,N,00050.5664,E,1,00,,0088.0,M,0.0,M,,0000*7E
$GPRMC,123020.000,A,4055.9513,N,00050.5664,E,055.65,0.0,020509,,,E*5B
$GPGGA,123021.000,4055.9367,N,00050.5581,E,1,00,,0087.8,M,0.0,M,,0000*75
$GPRMC,123021.000,A,4055.9367,N,00050.5581,E,058.00,0.0,020509,,,E*59
$GPGGA,123022.000,4055.9234,N,00050.5474,E,1,00,,0087.6,M,0.0,M,,0000*74
$GPRMC,123022.000,A,4055.9234,N,00050.5474,E,052.11,0.0,020509,,,E*5C
$GPGGA,123023.000,4055.9126,N,00050.5364,E,1,00,,0087.2,M,0.0,M,,0000*77
$GPRMC,123023.000,A,4055.9126,N,00050.5364,E,045.88,0.0,020509,,,E*5D
$GPGGA,123024.000,4055.9051,N,00050.5240,E,1,00,,0086.9,M,0.0,M,,0000*7C
$GPRMC,123024.000,A,4055.9051,N,00050.5240,E,041.78,0.0,020509,,,E*57
$GPGGA,123025.000,4055.9021,N,00050.5091,E,1,00,,0086.8,M,0.0,M,,0000*75
$GPRMC,123025.000,A,4055.9021,N,00050.5091,E,043.34,0.0,020509,,,E*55
$GPGGA,123026.000,4055.9044,N,00050.4933,E,1,00,,0087.5,M,0.0,M,,0000*79
$GPRMC,123026.000,A,4055.9044,N,00050.4933,E,045.41,0.0,020509,,,E*51
$GPGGA,123027.000,4055.9110,N,00050.4783,E,1,00,,0088.1,M,0.0,M,,0000*76
$GPRMC,123027.000,A,4055.9110,N,00050.4783,E,048.59,0.0,020509,,,E*51
$GPGGA,123028.000,4055.9184,N,00050.4635,E,1,00,,0088.4,M,0.0,M,,0000*7D
$GPRMC,123028.000,A,4055.9184,N,00050.4635,E,046.37,0.0,020509,,,E*59
$GPGGA,123029.000,4055.9220,N,00050.4480,E,1,00,,0088.7,M,0.0,M,,0000*7E
$GPRMC,123029.000,A,4055.9220,N,00050.4480,E,042.45,0.0,020509,,,E*58
$GPGGA,123030.000,4055.9204,N,00050.4330,E,1,00,,0088.9,M,0.0,M,,0000*72
$GPRMC,123030.000,A,4055.9204,N,00050.4330,E,042.43,0.0,020509,,,E*5C
$GPGGA,123031.000,4055.9133,N,00050.4199,E,1,00,,0089.2,M,0.0,M,,0000*7F
$GPRMC,123031.000,A,4055.9133,N,00050.4199,E,047.44,0.0,020509,,,E*59
$GPGGA,123032.000,4055.9032,N,00050.4064,E,1,00,,0089.1,M,0.0,M,,0000*7C
$GPRMC,123032.000,A,4055.9032,N,00050.4064,E,053.77,0.0,020509,,,E*5C
$GPGGA,123033.000,4055.8939,N,00050.3906,E,1,00,,0089.3,M,0.0,M,,0000*76
$GPRMC,123033.000,A,4055.8939,N,00050.3906,E,055.28,0.0,020509,,,E*58
$GPGGA,123034.000,4055.8847,N,00050.3738,E,1,00,,0089.2,M,0.0,M,,0000*7B
$GPRMC,123034.000,A,4055.8847,N,00050.3738,E,057.26,0.0,020509,,,E*58
$GPGGA,123035.000,4055.8721,N,00050.3599,E,1,00,,0089.3,M,0.0,M,,0000*7D
$GPRMC,123035.000,A,4055.8721,N,00050.3599,E,061.20,0.0,020509,,,E*5C
$GPGGA,123036.000,4055.8552,N,00050.3504,E,1,00,,0088.5,M,0.0,M,,0000*7B
$GPRMC,123036.000,A,4055.8552,N,00050.3504,E,068.96,0.0,020509,,,E*59
$GPGGA,123037.000,4055.8350,N,00050.3448,E,1,00,,0087.6,M,0.0,M,,0000*7B
$GPRMC,123037.000,A,4055.8350,N,00050.3448,E,077.25,0.0,020509,,,E*53
$GPGGA,123038.000,4055.8138,N,00050.3426,E,1,00,,0086.8,M,0.0,M,,0000*7F
$GPRMC,123038.000,A,4055.8138,N,00050.3426,E,073.22,0.0,020509,,,E*5B
$GPGGA,123039.000,4055.7948,N,00050.3421,E,1,00,,0086.2,M,0.0,M,,0000*73
$GPRMC,123039.000,A,4055.7948,N,00050.3421,E,063.15,0.0,020509,,,E*58
$GPGGA,123040.000,4055.7785,N,00050.3416,E,1,00,,0085.8,M,0.0,M,,0000*7F
$GPRMC,123040.000,A,4055.7785,N,00050.3416,E,051.95,0.0,020509,,,E*54
$GPGGA,123041.000,4055.7655,N,00050.3402,E,1,00,,0085.5,M,0.0,M,,0000*7A
$GPRMC,123041.000,A,4055.7655,N,00050.3402,E,042.05,0.0,020509,,,E*57
$GPGGA,123042.000,4055.7554,N,00050.3363,E,1,00,,0085.1,M,0.0,M,,0000*7F
$GPRMC,123042.000,A,4055.7554,N,00050.3363,E,034.02,0.0,020509,,,E*50
$GPGGA,123043.000,4055.7490,N,00050.3282,E,1,00,,0084.9,M,0.0,M,,0000*70
$GPRMC,123043.000,A,4055.7490,N,00050.3282,E,032.30,0.0,020509,,,E*51
$GPGGA,123044.000,4055.7476,N,00050.3167,E,1,00,,0085.4,M,0.0,M,,0000*7B
$GPRMC,123044.000,A,4055.7476,N,00050.3167,E,033.82,0.0,020509,,,E*5E
$GPGGA,123045.000,4055.7517,N,00050.3039,E,1,00,,0086.1,M,0.0,M,,0000*70
$GPRMC,123045.000,A,4055.7517,N,00050.3039,E,042.30,0.0,020509,,,E*5C
$GPGGA,123046.000,4055.7604,N,00050.2901,E,1,00,,0086.6,M,0.0,M,,0000*76
$GPRMC,123046.000,A,4055.7604,N,00050.2901,E,053.72,0.0,020509,,,E*5B
$GPGGA,123047.000,4055.7723,N,00050.2739,E,1,00,,0087.3,M,0.0,M,,0000*72
$GPRMC,123047.000,A,4055.7723,N,00050.2739,E,065.22,0.0,020509,,,E*5B
$GPGGA,123048.000,4055.7851,N,00050.2560,E,1,00,,0088.1,M,0.0,M,,0000*74
$GPRMC,123048.000,A,4055.7851,N,00050.2560,E,066.24,0.0,020509,,,E*55
$GPGGA,123049.000,4055.7973,N,00050.2390,E,1,00,,0088.9,M,0.0,M,,0000*75
$GPRMC,123049.000,A,4055.7973,N,00050.2390,E,058.76,0.0,020509,,,E*56
$GPGGA,123050.000,4055.8080,N,00050.2244,E,1,00,,0089.7,M,0.0,M,,0000*70
$GPRMC,123050.000,A,4055.8080,N,00050.2244,E,051.08,0.0,020509,,,E*5C
$GPGGA,123051.000,4055.8183,N,00050.2128,E,1,00,,0090.0,M,0.0,M,,0000*75
$GPRMC,123051.000,A,4055.8183,N,00050.2128,E,044.55,0.0,020509,,,E*5A
$GPGGA,123052.000,4055.8289,N,00050.2060,E,1,00,,0090.2,M,0.0,M,,0000*70
$GPRMC,123052.000,A,4055.8289,N,00050.2060,E,040.89,0.0,020509,,,E*58
$GPGGA,123053.000,4055.8405,N,00050.2064,E,1,00,,0090.6,M,0.0,M,,0000*73
$GPRMC,123053.000,A,4055.8405,N,00050.2064,E,044.10,0.0,020509,,,E*5B
$GPGGA,123054.000,4055.8520,N,00050.2144,E,1,00,,0091.3,M,0.0,M,,0000*75
$GPRMC,123054.000,A,4055.8520,N,00050.2144,E,049.67,0.0,020509,,,E*54
$GPGGA,123055.000,4055.8620,N,00050.2296,E,1,00,,0091.9,M,0.0,M,,0000*71
$GPRMC,123055.000,A,4055.8620,N,00050.2296,E,057.95,0.0,020509,,,E*58
$GPGGA,123056.000,4055.8703,N,00050.2513,E,1,00,,0092.2,M,0.0,M,,0000*70
$GPRMC,123056.000,A,4055.8703,N,00050.2513,E,070.37,0.0,020509,,,E*5C
$GPGGA,123057.000,4055.8792,N,00050.2761,E,1,00,,0093.0,M,0.0,M,,0000*7D
$GPRMC,123057.000,A,4055.8792,N,00050.2761,E,076.32,0.0,020509,,,E*51
$GPGGA,123058.000,4055.8902,N,00050.3019,E,1,00,,0094.0,M,0.0,M,,0000*7B
$GPRMC,123058.000,A,4055.8902,N,00050.3019,E,082.55,0.0,020509,,,E*5A
$GPGGA,123059.000,4055.9048,N,00050.3272,E,1,00,,0095.0,M,0.0,M,,0000*72
$GPRMC,123059.000,A,4055.9048,N,00050.3272,E,088.40,0.0,020509,,,E*5C
$GPGGA,123100.000,4055.9227,N,00050.3518,E,1,00,,0095.4,M,0.0,M,,0000*7B
$GPRMC,123100.000,A,4055.9227,N,00050.3518,E,095.04,0.0,020509,,,E*5D
$GPGGA,123101.000,4055.9431,N,00050.3767,E,1,00,,0095.7,M,0.0,M,,0000*72
$GPRMC,123101.000,A,4055.9431,N,00050.3767,E,101.81,0.0,020509,,,E*56
$GPGGA,123102.000,4055.9648,N,00050.4025,E,1,00,,0096.0,M,0.0,M,,0000*7F
$GPRMC,123102.000,A,4055.9648,N,00050.4025,E,106.26,0.0,020509,,,E*55
$GPGGA,123103.000,4055.9875,N,00050.4295,E,1,00,,0096.3,M,0.0,M,,0000*74
$GPRMC,123103.000,A,4055.9875,N,00050.4295,E,109.71,0.0,020509,,,E*50
$GPGGA,123104.000,4056.0104,N,00050.4572,E,1,00,,0096.6,M,0.0,M,,0000*7D
$GPRMC,123104.000,A,4056.0104,N,00050.4572,E,110.80,0.0,020509,,,E*5A
$GPGGA,123105.000,4056.0332,N,00050.4853,E,1,00,,0096.8,M,0.0,M,,0000*7B
$GPRMC,123105.000,A,4056.0332,N,00050.4853,E,111.59,0.0,020509,,,E*57
$GPGGA,123106.000,4056.0557,N,00050.5129,E,1,00,,0096.9,M,0.0,M,,0000*79
$GPRMC,123106.000,A,4056.0557,N,00050.5129,E,106.86,0.0,020509,,,E*50
$GPGGA,123107.000,4056.0765,N,00050.5385,E,1,00,,0096.9,M,0.0,M,,0000*7F
$GPRMC,123107.000,A,4056.0765,N,00050.5385,E,095.70,0.0,020509,,,E*54
$GPGGA,123108.000,4056.0950,N,00050.5611,E,1,00,,0096.9,M,0.0,M,,0000*70
$GPRMC,123108.000,A,4056.0950,N,00050.5611,E,083.94,0.0,020509,,,E*56
$GPGGA,123109.000,4056.1113,N,00050.5803,E,1,00,,0096.8,M,0.0,M,,0000*73
$GPRMC,123109.000,A,4056.1113,N,00050.5803,E,071.82,0.0,020509,,,E*5E
$GPGGA,123110.000,4056.1259,N,00050.5958,E,1,00,,0096.5,M,0.0,M,,0000*74
$GPRMC,123110.000,A,4056.1259,N,00050.5958,E,061.74,0.0,020509,,,E*5C
$GPGGA,123111.000,4056.1399,N,00050.6073,E,1,00,,0096.3,M,0.0,M,,0000*7D
$GPRMC,123111.000,A,4056.1399,N,00050.6073,E,057.64,0.0,020509,,,E*57
$GPGGA,123112.000,4056.1550,N,00050.6151,E,1,00,,0096.4,M,0.0,M,,0000*7B
$GPRMC,123112.000,A,4056.1550,N,00050.6151,E,057.31,0.0,020509,,,E*56
$GPGGA,123113.000,4056.1694,N,00050.6201,E,1,00,,0096.1,M,0.0,M,,0000*72
$GPRMC,123113.000,A,4056.1694,N,00050.6201,E,051.47,0.0,020509,,,E*5D
$GPGGA,123114.000,4056.1823,N,00050.6236,E,1,00,,0095.6,M,0.0,M,,0000*77
$GPRMC,123114.000,A,4056.1823,N,00050.6236,E,041.34,0.0,020509,,,E*59
$GPGGA,123115.000,4056.1926,N,00050.6263,E,1,00,,0095.1,M,0.0,M,,0000*75
$GPRMC,123115.000,A,4056.1926,N,00050.6263,E,033.71,0.0,020509,,,E*58
$GPGGA,123116.000,4056.2010,N,00050.6293,E,1,00,,0094.6,M,0.0,M,,0000*70
$GPRMC,123116.000,A,4056.2010,N,00050.6293,E,029.27,0.0,020509,,,E*53
$GPGGA,123117.000,4056.2077,N,00050.6347,E,1,00,,0094.0,M,0.0,M,,0000*7E
$GPRMC,123117.000,A,4056.2077,N,00050.6347,E,027.93,0.0,020509,,,E*5A
$GPGGA,123118.000,4056.2109,N,00050.6432,E,1,00,,0093.5,M,0.0,M,,0000*7E
$GPRMC,123118.000,A,4056.2109,N,00050.6432,E,027.20,0.0,020509,,,E*50
$GPGGA,123119.000,4056.2088,N,00050.6529,E,1,00,,0093.1,M,0.0,M,,0000*78
$GPRMC,123119.000,A,4056.2088,N,00050.6529,E,030.87,0.0,020509,,,E*59
$GPGGA,123120.000,4056.2010,N,00050.6605,E,1,00,,0093.0,M,0.0,M,,0000*7F
$GPRMC,123120.000,A,4056.2010,N,00050.6605,E,040.13,0.0,020509,,,E*55
$GPGGA,123121.000,4056.1889,N,00050.6643,E,1,00,,0092.9,M,0.0,M,,0000*7F
$GPRMC,123121.000,A,4056.1889,N,00050.6643,E,050.55,0.0,020509,,,E*5E
$GPGGA,123122.000,4056.1731,N,00050.6642,E,1,00,,0093.2,M,0.0,M,,0000*7B
$GPRMC,123122.000,A,4056.1731,N,00050.6642,E,061.01,0.0,020509,,,E*53
$GPGGA,123123.000,4056.1555,N,00050.6600,E,1,00,,0093.3,M,0.0,M,,0000*7D
$GPRMC,123123.000,A,4056.1555,N,00050.6600,E,067.03,0.0,020509,,,E*50
$GPGGA,123124.000,4056.1367,N,00050.6507,E,1,00,,0093.3,M,0.0,M,,0000*79
$GPRMC,123124.000,A,4056.1367,N,00050.6507,E,074.05,0.0,020509,,,E*50
$GPGGA,123125.000,4056.1182,N,00050.6361,E,1,00,,0093.5,M,0.0,M,,0000*71
$GPRMC,123125.000,A,4056.1182,N,00050.6361,E,079.62,0.0,020509,,,E*52
$GPGGA,123126.000,4056.1008,N,00050.6176,E,1,00,,0093.5,M,0.0,M,,0000*75
$GPRMC,123126.000,A,4056.1008,N,00050.6176,E,078.92,0.0,020509,,,E*58
$GPGGA,123127.000,4056.0852,N,00050.5977,E,1,00,,0093.5,M,0.0,M,,0000*78
$GPRMC,123127.000,A,4056.0852,N,00050.5977,E,075.37,0.0,020509,,,E*57
$GPGGA,123128.000,4056.0712,N,00050.5792,E,1,00,,0093.7,M,0.0,M,,0000*7B
$GPRMC,123128.000,A,4056.0712,N,00050.5792,E,065.59,0.0,020509,,,E*5F
$GPGGA,123129.000,4056.0598,N,00050.5639,E,1,00,,0094.2,M,0.0,M,,0000*78
$GPRMC,123129.000,A,4056.0598,N,00050.5639,E,050.48,0.0,020509,,,E*58
$GPGGA,123130.000,4056.0506,N,00050.5524,E,1,00,,0094.3,M,0.0,M,,0000*79
$GPRMC,123130.000,A,4056.0506,N,00050.5524,E,038.02,0.0,020509,,,E*58
$GPGGA,123131.000,4056.0435,N,00050.5436,E,1,00,,0094.3,M,0.0,M,,0000*7B
