$GPGGA,090137.000,4135.4890,N,00141.2632,E,1,00,,0494.1,M,0.0,M,,0000*71
$GPRMC,090137.000,A,4135.4890,N,00141.2632,E,000.00,0.0,110410,,,E*54
$GPGGA,090138.000,4135.4984,N,00141.2831,E,1,00,,0439.3,M,0.0,M,,0000*72
$GPRMC,090138.000,A,4135.4984,N,00141.2831,E,000.58,0.0,110410,,,E*5F
$GPGGA,090139.000,4135.4989,N,00141.2865,E,1,00,,0439.6,M,0.0,M,,0000*7A
$GPRMC,090139.000,A,4135.4989,N,00141.2865,E,000.65,0.0,110410,,,E*5C
$GPGGA,090140.000,4135.5014,N,00141.2823,E,1,00,,0442.9,M,0.0,M,,0000*79
$GPRMC,090140.000,A,4135.5014,N,00141.2823,E,000.00,0.0,110410,,,E*5F
$GPGGA,090141.000,4135.5003,N,00141.2811,E,1,00,,0448.5,M,0.0,M,,0000*79
$GPRMC,090141.000,A,4135.5003,N,00141.2811,E,000.00,0.0,110410,,,E*59
$GPGGA,090142.000,4135.5016,N,00141.2781,E,1,00,,0446.1,M,0.0,M,,0000*72
$GPRMC,090142.000,A,4135.5016,N,00141.2781,E,000.00,0.0,110410,,,E*58
$GPGGA,090143.000,4135.5025,N,00141.2751,E,1,00,,0445.1,M,0.0,M,,0000*7D
$GPRMC,090143.000,A,4135.5025,N,00141.2751,E,000.00,0.0,110410,,,E*54
$GPGGA,090144.000,4135.5035,N,00141.2728,E,1,00,,0446.0,M,0.0,M,,0000*77
$GPRMC,090144.000,A,4135.5035,N,00141.2728,E,000.00,0.0,110410,,,E*5C
$GPGGA,090145.000,4135.5032,N,00141.2734,E,1,00,,0451.3,M,0.0,M,,0000*79
$GPRMC,090145.000,A,4135.5032,N,00141.2734,E,000.00,0.0,110410,,,E*57
$GPGGA,090146.000,4135.5028,N,00141.2735,E,1,00,,0455.5,M,0.0,M,,0000*72
$GPRMC,090146.000,A,4135.5028,N,00141.2735,E,000.00,0.0,110410,,,E*5E
$GPGGA,090147.000,4135.5028,N,00141.2731,E,1,00,,0458.9,M,0.0,M,,0000*76
$GPRMC,090147.000,A,4135.5028,N,00141.2731,E,000.00,0.0,110410,,,E*5B
$GPGGA,090148.000,4135.5028,N,00141.2720,E,1,00,,0461.2,M,0.0,M,,0000*78
$GPRMC,090148.000,A,4135.5028,N,00141.2720,E,000.00,0.0,110410,,,E*54
$GPGGA,090149.000,4135.5037,N,00141.2700,E,1,00,,0461.0,M,0.0,M,,0000*77
$GPRMC,090149.000,A,4135.5037,N,00141.2700,E,000.00,0.0,110410,,,E*59
$GPGGA,090150.000,4135.5039,N,00141.2696,E,1,00,,0461.7,M,0.0,M,,0000*78
$GPRMC,090150.000,A,4135.5039,N,00141.2696,E,000.00,0.0,110410,,,E*51
$GPGGA,090151.000,4135.5044,N,00141.2688,E,1,00,,0461.4,M,0.0,M,,0000*7F
$GPRMC,090151.000,A,4135.5044,N,00141.2688,E,000.00,0.0,110410,,,E*55
$GPGGA,090153.000,4135.5046,N,00141.2690,E,1,00,,0461.6,M,0.0,M,,0000*74
$GPRMC,090153.000,A,4135.5046,N,00141.2690,E,000.00,0.0,110410,,,E*5C
$GPGGA,090154.000,4135.5053,N,00141.2686,E,1,00,,0462.3,M,0.0,M,,0000*76
$GPRMC,090154.000,A,4135.5053,N,00141.2686,E,000.00,0.0,110410,,,E*58
$GPGGA,090155.000,4135.5055,N,00141.2685,E,1,00,,0463.7,M,0.0,M,,0000*77
$GPRMC,090155.000,A,4135.5055,N,00141.2685,E,000.00,0.0,110410,,,E*5C
$GPGGA,090156.000,4135.5058,N,00141.2682,E,1,00,,0464.3,M,0.0,M,,0000*7D
$GPRMC,090156.000,A,4135.5058,N,00141.2682,E,000.00,0.0,110410,,,E*55
$GPGGA,090157.000,4135.5058,N,00141.2686,E,1,00,,0464.3,M,0.0,M,,0000*78
$GPRMC,090157.000,A,4135.5058,N,00141.2686,E,000.00,0.0,110410,,,E*50
$GPGGA,090158.000,4135.5058,N,00141.2685,E,1,00,,0464.1,M,0.0,M,,0000*76
$GPRMC,090158.000,A,4135.5058,N,00141.2685,E,000.00,0.0,110410,,,E*5C
$GPGGA,090159.000,4135.5055,N,00141.2688,E,1,00,,0463.8,M,0.0,M,,0000*79
$GPRMC,090159.000,A,4135.5055,N,00141.2688,E,000.00,0.0,110410,,,E*5D
$GPGGA,090200.000,4135.5053,N,00141.2682,E,1,00,,0465.3,M,0.0,M,,0000*77
$GPRMC,090200.000,A,4135.5053,N,00141.2682,E,000.00,0.0,110410,,,E*5E
$GPGGA,090201.000,4135.5060,N,00141.2687,E,1,00,,0463.8,M,0.0,M,,0000*7E
$GPRMC,090201.000,A,4135.5060,N,00141.2687,E,000.00,0.0,110410,,,E*5A
$GPGGA,090202.000,4135.5058,N,00141.2681,E,1,00,,0464.9,M,0.0,M,,0000*76
$GPRMC,090202.000,A,4135.5058,N,00141.2681,E,000.00,0.0,110410,,,E*54
$GPGGA,090203.000,4135.5055,N,00141.2677,E,1,00,,0465.9,M,0.0,M,,0000*72
$GPRMC,090203.000,A,4135.5055,N,00141.2677,E,000.00,0.0,110410,,,E*51
$GPGGA,090204.000,4135.5053,N,00141.2673,E,1,00,,0467.0,M,0.0,M,,0000*7C
$GPRMC,090204.000,A,4135.5053,N,00141.2673,E,000.00,0.0,110410,,,E*54
$GPGGA,090205.000,4135.5053,N,00141.2669,E,1,00,,0468.0,M,0.0,M,,0000*79
$GPRMC,090205.000,A,4135.5053,N,00141.2669,E,000.00,0.0,110410,,,E*5E
$GPGGA,090206.000,4135.5053,N,00141.2666,E,1,00,,0469.2,M,0.0,M,,0000*76
$GPRMC,090206.000,A,4135.5053,N,00141.2666,E,000.00,0.0,110410,,,E*52
$GPGGA,090207.000,4135.5053,N,00141.2663,E,1,00,,0470.4,M,0.0,M,,0000*7C
$GPRMC,090207.000,A,4135.5053,N,00141.2663,E,000.00,0.0,110410,,,E*56
$GPGGA,090208.000,4135.5051,N,00141.2660,E,1,00,,0471.3,M,0.0,M,,0000*74
$GPRMC,090208.000,A,4135.5051,N,00141.2660,E,000.00,0.0,110410,,,E*58
$GPGGA,090209.000,4135.5051,N,00141.2663,E,1,00,,0470.4,M,0.0,M,,0000*70
$GPRMC,090209.000,A,4135.5051,N,00141.2663,E,000.00,0.0,110410,,,E*5A
$GPGGA,090210.000,4135.5046,N,00141.2665,E,1,00,,0469.8,M,0.0,M,,0000*7C
$GPRMC,090210.000,A,4135.5046,N,00141.2665,E,000.00,0.0,110410,,,E*52
$GPGGA,090211.000,4135.5044,N,00141.2659,E,1,00,,0469.7,M,0.0,M,,0000*7F
$GPRMC,090211.000,A,4135.5044,N,00141.2659,E,000.00,0.0,110410,,,E*5E
$GPGGA,090212.000,4135.5042,N,00141.2657,E,1,00,,0469.9,M,0.0,M,,0000*7A
$GPRMC,090212.000,A,4135.5042,N,00141.2657,E,000.00,0.0,110410,,,E*55
$GPGGA,090213.000,4135.5046,N,00141.2663,E,1,00,,0469.6,M,0.0,M,,0000*77
$GPRMC,090213.000,A,4135.5046,N,00141.2663,E,000.00,0.0,110410,,,E*57
$GPGGA,090214.000,4135.5051,N,00141.2661,E,1,00,,0466.9,M,0.0,M,,0000*74
$GPRMC,090214.000,A,4135.5051,N,00141.2661,E,000.00,0.0,110410,,,E*54
$GPGGA,090217.000,4135.5064,N,00141.2651,E,1,00,,0464.9,M,0.0,M,,0000*70
$GPRMC,090217.000,A,4135.5064,N,00141.2651,E,000.76,0.0,110410,,,E*53
$GPGGA,090218.000,4135.5080,N,00141.2642,E,1,00,,0461.2,M,0.0,M,,0000*79
$GPRMC,090218.000,A,4135.5080,N,00141.2642,E,000.66,0.0,110410,,,E*55
$GPGGA,090219.000,4135.5076,N,00141.2611,E,1,00,,0459.7,M,0.0,M,,0000*79
$GPRMC,090219.000,A,4135.5076,N,00141.2611,E,000.76,0.0,110410,,,E*5A
$GPGGA,090220.000,4135.5078,N,00141.2592,E,1,00,,0458.5,M,0.0,M,,0000*76
$GPRMC,090220.000,A,4135.5078,N,00141.2592,E,000.00,0.0,110410,,,E*57
$GPGGA,090221.000,4135.5080,N,00141.2575,E,1,00,,0457.8,M,0.0,M,,0000*7B
$GPRMC,090221.000,A,4135.5080,N,00141.2575,E,000.00,0.0,110410,,,E*58
$GPGGA,090222.000,4135.5080,N,00141.2566,E,1,00,,0458.0,M,0.0,M,,0000*7D
$GPRMC,090222.000,A,4135.5080,N,00141.2566,E,000.00,0.0,110410,,,E*59
$GPGGA,090223.000,4135.5080,N,00141.2560,E,1,00,,0458.7,M,0.0,M,,0000*7D
$GPRMC,090223.000,A,4135.5080,N,00141.2560,E,000.00,0.0,110410,,,E*5E
$GPGGA,090224.000,4135.5076,N,00141.2556,E,1,00,,0458.9,M,0.0,M,,0000*78
$GPRMC,090224.000,A,4135.5076,N,00141.2556,E,000.00,0.0,110410,,,E*55
$GPGGA,090225.000,4135.5076,N,00141.2556,E,1,00,,0459.4,M,0.0,M,,0000*75
$GPRMC,090225.000,A,4135.5076,N,00141.2556,E,000.00,0.0,110410,,,E*54
$GPGGA,090226.000,4135.5078,N,00141.2557,E,1,00,,0459.9,M,0.0,M,,0000*74
$GPRMC,090226.000,A,4135.5078,N,00141.2557,E,000.00,0.0,110410,,,E*58
$GPGGA,090227.000,4135.5080,N,00141.2556,E,1,00,,0459.4,M,0.0,M,,0000*7E
$GPRMC,090227.000,A,4135.5080,N,00141.2556,E,000.00,0.0,110410,,,E*5F
$GPGGA,090228.000,4135.5083,N,00141.2550,E,1,00,,0458.4,M,0.0,M,,0000*75
$GPRMC,090228.000,A,4135.5083,N,00141.2550,E,000.00,0.0,110410,,,E*55
$GPGGA,090229.000,4135.5083,N,00141.2553,E,1,00,,0455.7,M,0.0,M,,0000*79
$GPRMC,090229.000,A,4135.5083,N,00141.2553,E,000.00,0.0,110410,,,E*57
$GPGGA,090230.000,4135.5083,N,00141.2551,E,1,00,,0454.6,M,0.0,M,,0000*73
$GPRMC,090230.000,A,4135.5083,N,00141.2551,E,000.00,0.0,110410,,,E*5D
$GPGGA,090231.000,4135.5080,N,00141.2557,E,1,00,,0451.9,M,0.0,M,,0000*7D
$GPRMC,090231.000,A,4135.5080,N,00141.2557,E,000.56,0.0,110410,,,E*5A
$GPGGA,090232.000,4135.5080,N,00141.2561,E,1,00,,0447.1,M,0.0,M,,0000*74
$GPRMC,090232.000,A,4135.5080,N,00141.2561,E,000.56,0.0,110410,,,E*5C
$GPGGA,090233.000,4135.5083,N,00141.2569,E,1,00,,0444.2,M,0.0,M,,0000*7E
$GPRMC,090233.000,A,4135.5083,N,00141.2569,E,000.00,0.0,110410,,,E*55
$GPGGA,090234.000,4135.5078,N,00141.2572,E,1,00,,0445.1,M,0.0,M,,0000*75
$GPRMC,090234.000,A,4135.5078,N,00141.2572,E,000.00,0.0,110410,,,E*5C
$GPGGA,090235.000,4135.5078,N,00141.2575,E,1,00,,0442.4,M,0.0,M,,0000*71
$GPRMC,090235.000,A,4135.5078,N,00141.2575,E,000.00,0.0,110410,,,E*5A
$GPGGA,090236.000,4135.5080,N,00141.2580,E,1,00,,0439.0,M,0.0,M,,0000*77
$GPRMC,090236.000,A,4135.5080,N,00141.2580,E,000.00,0.0,110410,,,E*54
$GPGGA,090237.000,4135.5083,N,00141.2590,E,1,00,,0437.5,M,0.0,M,,0000*7F
$GPRMC,090237.000,A,4135.5083,N,00141.2590,E,000.00,0.0,110410,,,E*57
$GPGGA,090238.000,4135.5085,N,00141.2602,E,1,00,,0436.7,M,0.0,M,,0000*7D
$GPRMC,090238.000,A,4135.5085,N,00141.2602,E,000.00,0.0,110410,,,E*56
$GPGGA,090239.000,4135.5085,N,00141.2605,E,1,00,,0435.2,M,0.0,M,,0000*7D
$GPRMC,090239.000,A,4135.5085,N,00141.2605,E,000.00,0.0,110410,,,E*50
$GPGGA,090240.000,4135.5083,N,00141.2604,E,1,00,,0433.5,M,0.0,M,,0000*75
$GPRMC,090240.000,A,4135.5083,N,00141.2604,E,000.00,0.0,110410,,,E*59
$GPGGA,090241.000,4135.5080,N,00141.2606,E,1,00,,0432.3,M,0.0,M,,0000*72
$GPRMC,090241.000,A,4135.5080,N,00141.2606,E,000.00,0.0,110410,,,E*59
$GPGGA,090242.000,4135.5080,N,00141.2602,E,1,00,,0429.4,M,0.0,M,,0000*78
$GPRMC,090242.000,A,4135.5080,N,00141.2602,E,000.00,0.0,110410,,,E*5E
$GPGGA,090244.000,4135.5080,N,00141.2605,E,1,00,,0428.5,M,0.0,M,,0000*79
$GPRMC,090244.000,A,4135.5080,N,00141.2605,E,000.00,0.0,110410,,,E*5F
$GPGGA,090245.000,4135.5071,N,00141.2616,E,1,00,,0429.1,M,0.0,M,,0000*71
$GPRMC,090245.000,A,4135.5071,N,00141.2616,E,000.00,0.0,110410,,,E*52
$GPGGA,090246.000,4135.5069,N,00141.2625,E,1,00,,0429.2,M,0.0,M,,0000*78
$GPRMC,090246.000,A,4135.5069,N,00141.2625,E,000.00,0.0,110410,,,E*58
$GPGGA,090247.000,4135.5060,N,00141.2647,E,1,00,,0430.9,M,0.0,M,,0000*77
$GPRMC,090247.000,A,4135.5060,N,00141.2647,E,000.00,0.0,110410,,,E*54
$GPGGA,090248.000,4135.5051,N,00141.2667,E,1,00,,0432.3,M,0.0,M,,0000*70
$GPRMC,090248.000,A,4135.5051,N,00141.2667,E,000.00,0.0,110410,,,E*5B
$GPGGA,090249.000,4135.5046,N,00141.2669,E,1,00,,0432.4,M,0.0,M,,0000*7E
$GPRMC,090249.000,A,4135.5046,N,00141.2669,E,000.00,0.0,110410,,,E*52
$GPGGA,090250.000,4135.5044,N,00141.2675,E,1,00,,0432.0,M,0.0,M,,0000*7D
$GPRMC,090250.000,A,4135.5044,N,00141.2675,E,000.00,0.0,110410,,,E*55
$GPGGA,090251.000,4135.5044,N,00141.2673,E,1,00,,0431.4,M,0.0,M,,0000*7D
$GPRMC,090251.000,A,4135.5044,N,00141.2673,E,000.00,0.0,110410,,,E*52
$GPGGA,090252.000,4135.5042,N,00141.2673,E,1,00,,0430.6,M,0.0,M,,0000*7B
$GPRMC,090252.000,A,4135.5042,N,00141.2673,E,000.00,0.0,110410,,,E*57
$GPGGA,090253.000,4135.5039,N,00141.2673,E,1,00,,0430.0,M,0.0,M,,0000*70
$GPRMC,090253.000,A,4135.5039,N,00141.2673,E,000.00,0.0,110410,,,E*5A
$GPGGA,090254.000,4135.5039,N,00141.2673,E,1,00,,0429.2,M,0.0,M,,0000*7D
$GPRMC,090254.000,A,4135.5039,N,00141.2673,E,000.00,0.0,110410,,,E*5D
$GPGGA,090255.000,4135.5037,N,00141.2678,E,1,00,,0428.9,M,0.0,M,,0000*73
$GPRMC,090255.000,A,4135.5037,N,00141.2678,E,000.00,0.0,110410,,,E*59
$GPGGA,090256.000,4135.5037,N,00141.2678,E,1,00,,0428.4,M,0.0,M,,0000*7D
$GPRMC,090256.000,A,4135.5037,N,00141.2678,E,000.00,0.0,110410,,,E*5A
$GPGGA,090257.000,4135.5037,N,00141.2682,E,1,00,,0428.3,M,0.0,M,,0000*7E
$GPRMC,090257.000,A,4135.5037,N,00141.2682,E,000.00,0.0,110410,,,E*5E
$GPGGA,090258.000,4135.5037,N,00141.2686,E,1,00,,0428.2,M,0.0,M,,0000*74
$GPRMC,090258.000,A,4135.5037,N,00141.2686,E,000.00,0.0,110410,,,E*55
$GPGGA,090259.000,4135.5039,N,00141.2688,E,1,00,,0427.4,M,0.0,M,,0000*7C
$GPRMC,090259.000,A,4135.5039,N,00141.2688,E,000.00,0.0,110410,,,E*54
$GPGGA,090300.000,4135.5037,N,00141.2685,E,1,00,,0425.7,M,0.0,M,,0000*73
$GPRMC,090300.000,A,4135.5037,N,00141.2685,E,000.00,0.0,110410,,,E*5A
$GPGGA,090301.000,4135.5037,N,00141.2681,E,1,00,,0423.8,M,0.0,M,,0000*7F
$GPRMC,090301.000,A,4135.5037,N,00141.2681,E,000.00,0.0,110410,,,E*5F
$GPGGA,090302.000,4135.5035,N,00141.2678,E,1,00,,0422.0,M,0.0,M,,0000*71
$GPRMC,090302.000,A,4135.5035,N,00141.2678,E,000.00,0.0,110410,,,E*58
$GPGGA,090303.000,4135.5035,N,00141.2674,E,1,00,,0420.0,M,0.0,M,,0000*7E
$GPRMC,090303.000,A,4135.5035,N,00141.2674,E,000.00,0.0,110410,,,E*55
$GPGGA,090304.000,4135.5032,N,00141.2672,E,1,00,,0418.1,M,0.0,M,,0000*72
$GPRMC,090304.000,A,4135.5032,N,00141.2672,E,000.00,0.0,110410,,,E*53
$GPGGA,090305.000,4135.5032,N,00141.2670,E,1,00,,0416.3,M,0.0,M,,0000*7D
$GPRMC,090305.000,A,4135.5032,N,00141.2670,E,000.00,0.0,110410,,,E*50
$GPGGA,090306.000,4135.5030,N,00141.2668,E,1,00,,0414.4,M,0.0,M,,0000*70
$GPRMC,090306.000,A,4135.5030,N,00141.2668,E,000.00,0.0,110410,,,E*58
$GPGGA,090307.000,4135.5030,N,00141.2667,E,1,00,,0412.8,M,0.0,M,,0000*74
$GPRMC,090307.000,A,4135.5030,N,00141.2667,E,000.00,0.0,110410,,,E*56
$GPGGA,090308.000,4135.5035,N,00141.2667,E,1,00,,0413.0,M,0.0,M,,0000*77
$GPRMC,090308.000,A,4135.5035,N,00141.2667,E,000.00,0.0,110410,,,E*5C
$GPGGA,090309.000,4135.5037,N,00141.2667,E,1,00,,0413.1,M,0.0,M,,0000*75
$GPRMC,090309.000,A,4135.5037,N,00141.2667,E,000.00,0.0,110410,,,E*5F
$GPGGA,090310.000,4135.5039,N,00141.2666,E,1,00,,0412.8,M,0.0,M,,0000*7A
$GPRMC,090310.000,A,4135.5039,N,00141.2666,E,000.00,0.0,110410,,,E*58
$GPGGA,090311.000,4135.5039,N,00141.2665,E,1,00,,0411.5,M,0.0,M,,0000*76
$GPRMC,090311.000,A,4135.5039,N,00141.2665,E,000.00,0.0,110410,,,E*5A
$GPGGA,090312.000,4135.5039,N,00141.2663,E,1,00,,0409.8,M,0.0,M,,0000*77
$GPRMC,090312.000,A,4135.5039,N,00141.2663,E,000.00,0.0,110410,,,E*5F
$GPGGA,090313.000,4135.5039,N,00141.2662,E,1,00,,0408.5,M,0.0,M,,0000*7B
$GPRMC,090313.000,A,4135.5039,N,00141.2662,E,000.00,0.0,110410,,,E*5F
$GPGGA,090314.000,4135.5044,N,00141.2658,E,1,00,,0406.3,M,0.0,M,,0000*77
$GPRMC,090314.000,A,4135.5044,N,00141.2658,E,000.00,0.0,110410,,,E*5B
$GPGGA,090315.000,4135.5044,N,00141.2655,E,1,00,,0404.3,M,0.0,M,,0000*79
$GPRMC,090315.000,A,4135.5044,N,00141.2655,E,000.00,0.0,110410,,,E*57
$GPGGA,090316.000,4135.5046,N,00141.2653,E,1,00,,0402.5,M,0.0,M,,0000*7E
$GPRMC,090316.000,A,4135.5046,N,00141.2653,E,000.00,0.0,110410,,,E*50
$GPGGA,090317.000,4135.5051,N,00141.2652,E,1,00,,0403.8,M,0.0,M,,0000*74
$GPRMC,090317.000,A,4135.5051,N,00141.2652,E,000.00,0.0,110410,,,E*56
$GPGGA,090318.000,4135.5051,N,00141.2651,E,1,00,,0402.4,M,0.0,M,,0000*75
$GPRMC,090318.000,A,4135.5051,N,00141.2651,E,000.00,0.0,110410,,,E*5A
$GPGGA,090319.000,4135.5051,N,00141.2650,E,1,00,,0401.2,M,0.0,M,,0000*70
$GPRMC,090319.000,A,4135.5051,N,00141.2650,E,000.00,0.0,110410,,,E*5A
$GPGGA,090320.000,4135.5051,N,00141.2649,E,1,00,,0400.1,M,0.0,M,,0000*70
$GPRMC,090320.000,A,4135.5051,N,00141.2649,E,000.00,0.0,110410,,,E*58
$GPGGA,090321.000,4135.5053,N,00141.2649,E,1,00,,0399.1,M,0.0,M,,0000*74
$GPRMC,090321.000,A,4135.5053,N,00141.2649,E,000.00,0.0,110410,,,E*5B
$GPGGA,090322.000,4135.5058,N,00141.2647,E,1,00,,0400.6,M,0.0,M,,0000*72
$GPRMC,090322.000,A,4135.5058,N,00141.2647,E,000.00,0.0,110410,,,E*5D
$GPGGA,090323.000,4135.5060,N,00141.2645,E,1,00,,0401.6,M,0.0,M,,0000*7B
$GPRMC,090323.000,A,4135.5060,N,00141.2645,E,000.00,0.0,110410,,,E*55
$GPGGA,090324.000,4135.5060,N,00141.2644,E,1,00,,0402.4,M,0.0,M,,0000*7C
$GPRMC,090324.000,A,4135.5060,N,00141.2644,E,000.00,0.0,110410,,,E*53
$GPGGA,090325.000,4135.5064,N,00141.2645,E,1,00,,0403.2,M,0.0,M,,0000*7F
$GPRMC,090325.000,A,4135.5064,N,00141.2645,E,000.00,0.0,110410,,,E*57
$GPGGA,090326.000,4135.5067,N,00141.2647,E,1,00,,0402.9,M,0.0,M,,0000*77
$GPRMC,090326.000,A,4135.5067,N,00141.2647,E,000.00,0.0,110410,,,E*55
$GPGGA,090327.000,4135.5069,N,00141.2649,E,1,00,,0402.2,M,0.0,M,,0000*7D
$GPRMC,090327.000,A,4135.5069,N,00141.2649,E,000.00,0.0,110410,,,E*54
$GPGGA,090328.000,4135.5069,N,00141.2648,E,1,00,,0402.9,M,0.0,M,,0000*78
$GPRMC,090328.000,A,4135.5069,N,00141.2648,E,000.00,0.0,110410,,,E*5A
$GPGGA,090329.000,4135.5069,N,00141.2647,E,1,00,,0403.9,M,0.0,M,,0000*77
$GPRMC,090329.000,A,4135.5069,N,00141.2647,E,000.00,0.0,110410,,,E*54
$GPGGA,090330.000,4135.5071,N,00141.2646,E,1,00,,0405.1,M,0.0,M,,0000*79
$GPRMC,090330.000,A,4135.5071,N,00141.2646,E,000.00,0.0,110410,,,E*54
$GPGGA,090331.000,4135.5071,N,00141.2644,E,1,00,,0406.2,M,0.0,M,,0000*7A
$GPRMC,090331.000,A,4135.5071,N,00141.2644,E,000.00,0.0,110410,,,E*57
$GPGGA,090332.000,4135.5074,N,00141.2642,E,1,00,,0407.7,M,0.0,M,,0000*7E
$GPRMC,090332.000,A,4135.5074,N,00141.2642,E,000.00,0.0,110410,,,E*57
$GPGGA,090333.000,4135.5074,N,00141.2639,E,1,00,,0409.1,M,0.0,M,,0000*7B
$GPRMC,090333.000,A,4135.5074,N,00141.2639,E,000.00,0.0,110410,,,E*5A
$GPGGA,090334.000,4135.5074,N,00141.2637,E,1,00,,0410.9,M,0.0,M,,0000*72
$GPRMC,090334.000,A,4135.5074,N,00141.2637,E,000.00,0.0,110410,,,E*53
$GPGGA,090335.000,4135.5071,N,00141.2633,E,1,00,,0412.5,M,0.0,M,,0000*7C
$GPRMC,090335.000,A,4135.5071,N,00141.2633,E,000.00,0.0,110410,,,E*53
$GPGGA,090336.000,4135.5069,N,00141.2630,E,1,00,,0414.1,M,0.0,M,,0000*77
$GPRMC,090336.000,A,4135.5069,N,00141.2630,E,000.00,0.0,110410,,,E*5A
$GPGGA,090337.000,4135.5067,N,00141.2628,E,1,00,,0415.9,M,0.0,M,,0000*78
$GPRMC,090337.000,A,4135.5067,N,00141.2628,E,000.00,0.0,110410,,,E*5C
$GPGGA,090338.000,4135.5067,N,00141.2625,E,1,00,,0417.5,M,0.0,M,,0000*74
$GPRMC,090338.000,A,4135.5067,N,00141.2625,E,000.00,0.0,110410,,,E*5E
$GPGGA,090339.000,4135.5064,N,00141.2621,E,1,00,,0419.5,M,0.0,M,,0000*7C
$GPRMC,090339.000,A,4135.5064,N,00141.2621,E,000.00,0.0,110410,,,E*58
$GPGGA,090340.000,4135.5062,N,00141.2617,E,1,00,,0421.4,M,0.0,M,,0000*7B
$GPRMC,090340.000,A,4135.5062,N,00141.2617,E,000.00,0.0,110410,,,E*55
$GPGGA,090341.000,4135.5060,N,00141.2614,E,1,00,,0421.7,M,0.0,M,,0000*78
$GPRMC,090341.000,A,4135.5060,N,00141.2614,E,000.00,0.0,110410,,,E*55
$GPGGA,090342.000,4135.5058,N,00141.2610,E,1,00,,0423.7,M,0.0,M,,0000*76
$GPRMC,090342.000,A,4135.5058,N,00141.2610,E,000.00,0.0,110410,,,E*59
$GPGGA,090343.000,4135.5058,N,00141.2606,E,1,00,,0425.5,M,0.0,M,,0000*74
$GPRMC,090343.000,A,4135.5058,N,00141.2606,E,000.00,0.0,110410,,,E*5F
$GPGGA,090344.000,4135.5058,N,00141.2603,E,1,00,,0427.6,M,0.0,M,,0000*77
$GPRMC,090344.000,A,4135.5058,N,00141.2603,E,000.00,0.0,110410,,,E*5D
$GPGGA,090345.000,4135.5060,N,00141.2608,E,1,00,,0425.5,M,0.0,M,,0000*77
$GPRMC,090345.000,A,4135.5060,N,00141.2608,E,000.00,0.0,110410,,,E*5C
$GPGGA,090346.000,4135.5060,N,00141.2614,E,1,00,,0424.0,M,0.0,M,,0000*7D
$GPRMC,090346.000,A,4135.5060,N,00141.2614,E,000.00,0.0,110410,,,E*52
$GPGGA,090347.000,4135.5062,N,00141.2617,E,1,00,,0423.6,M,0.0,M,,0000*7C
$GPRMC,090347.000,A,4135.5062,N,00141.2617,E,000.00,0.0,110410,,,E*52
$GPGGA,090348.000,4135.5071,N,00141.2624,E,1,00,,0422.6,M,0.0,M,,0000*70
$GPRMC,090348.000,A,4135.5071,N,00141.2624,E,000.72,0.0,110410,,,E*5A
$GPGGA,090349.000,4135.5078,N,00141.2621,E,1,00,,0421.0,M,0.0,M,,0000*78
$GPRMC,090349.000,A,4135.5078,N,00141.2621,E,001.02,0.0,110410,,,E*51
$GPGGA,090350.000,4135.5092,N,00141.2622,E,1,00,,0420.2,M,0.0,M,,0000*74
$GPRMC,090350.000,A,4135.5092,N,00141.2622,E,001.41,0.0,110410,,,E*59
$GPGGA,090351.000,4135.5090,N,00141.2622,E,1,00,,0416.4,M,0.0,M,,0000*74
$GPRMC,090351.000,A,4135.5090,N,00141.2622,E,001.30,0.0,110410,,,E*5C
$GPGGA,090352.000,4135.5090,N,00141.2621,E,1,00,,0413.0,M,0.0,M,,0000*75
$GPRMC,090352.000,A,4135.5090,N,00141.2621,E,001.03,0.0,110410,,,E*5C
$GPGGA,090353.000,4135.5092,N,00141.2620,E,1,00,,0412.0,M,0.0,M,,0000*76
$GPRMC,090353.000,A,4135.5092,N,00141.2620,E,000.00,0.0,110410,,,E*5C
$GPGGA,090354.000,4135.5085,N,00141.2620,E,1,00,,0410.4,M,0.0,M,,0000*71
$GPRMC,090354.000,A,4135.5085,N,00141.2620,E,000.00,0.0,110410,,,E*5D
$GPGGA,090355.000,4135.5083,N,00141.2614,E,1,00,,0408.7,M,0.0,M,,0000*7B
$GPRMC,090355.000,A,4135.5083,N,00141.2614,E,000.00,0.0,110410,,,E*5D
$GPGGA,090356.000,4135.5076,N,00141.2614,E,1,00,,0407.2,M,0.0,M,,0000*78
$GPRMC,090356.000,A,4135.5076,N,00141.2614,E,000.00,0.0,110410,,,E*54
$GPGGA,090357.000,4135.5074,N,00141.2615,E,1,00,,0406.5,M,0.0,M,,0000*7C
$GPRMC,090357.000,A,4135.5074,N,00141.2615,E,000.00,0.0,110410,,,E*56
$GPGGA,090358.000,4135.5067,N,00141.2627,E,1,00,,0407.1,M,0.0,M,,0000*75
$GPRMC,090358.000,A,4135.5067,N,00141.2627,E,001.07,0.0,110410,,,E*5C
$GPGGA,090400.000,4135.5058,N,00141.2636,E,1,00,,0404.9,M,0.0,M,,0000*78
$GPRMC,090400.000,A,4135.5058,N,00141.2636,E,001.05,0.0,110410,,,E*58
$GPGGA,090401.000,4135.5053,N,00141.2644,E,1,00,,0404.7,M,0.0,M,,0000*79
$GPRMC,090401.000,A,4135.5053,N,00141.2644,E,000.96,0.0,110410,,,E*5C
$GPGGA,090402.000,4135.5058,N,00141.2649,E,1,00,,0404.8,M,0.0,M,,0000*73
$GPRMC,090402.000,A,4135.5058,N,00141.2649,E,000.00,0.0,110410,,,E*56
$GPGGA,090403.000,4135.5060,N,00141.2646,E,1,00,,0403.7,M,0.0,M,,0000*7E
$GPRMC,090403.000,A,4135.5060,N,00141.2646,E,000.00,0.0,110410,,,E*53
$GPGGA,090404.000,4135.5060,N,00141.2648,E,1,00,,0403.3,M,0.0,M,,0000*73
$GPRMC,090404.000,A,4135.5060,N,00141.2648,E,000.57,0.0,110410,,,E*58
$GPGGA,090405.000,4135.5060,N,00141.2649,E,1,00,,0403.2,M,0.0,M,,0000*72
$GPRMC,090405.000,A,4135.5060,N,00141.2649,E,000.86,0.0,110410,,,E*54
$GPGGA,090406.000,4135.5062,N,00141.2647,E,1,00,,0403.4,M,0.0,M,,0000*7B
$GPRMC,090406.000,A,4135.5062,N,00141.2647,E,000.93,0.0,110410,,,E*5F
$GPGGA,090407.000,4135.5067,N,00141.2646,E,1,00,,0403.1,M,0.0,M,,0000*7B
$GPRMC,090407.000,A,4135.5067,N,00141.2646,E,000.90,0.0,110410,,,E*59
$GPGGA,090408.000,4135.5069,N,00141.2643,E,1,00,,0402.8,M,0.0,M,,0000*77
$GPRMC,090408.000,A,4135.5069,N,00141.2643,E,000.64,0.0,110410,,,E*56
$GPGGA,090409.000,4135.5076,N,00141.2637,E,1,00,,0402.3,M,0.0,M,,0000*70
$GPRMC,090409.000,A,4135.5076,N,00141.2637,E,001.01,0.0,110410,,,E*58
$GPGGA,090410.000,4135.5085,N,00141.2639,E,1,00,,0402.4,M,0.0,M,,0000*7D
$GPRMC,090410.000,A,4135.5085,N,00141.2639,E,001.36,0.0,110410,,,E*56
$GPGGA,090411.000,4135.5096,N,00141.2641,E,1,00,,0400.9,M,0.0,M,,0000*7E
$GPRMC,090411.000,A,4135.5096,N,00141.2641,E,001.95,0.0,110410,,,E*53
$GPGGA,090412.000,4135.5103,N,00141.2638,E,1,00,,0400.2,M,0.0,M,,0000*75
$GPRMC,090412.000,A,4135.5103,N,00141.2638,E,001.67,0.0,110410,,,E*5E
$GPGGA,090413.000,4135.5112,N,00141.2633,E,1,00,,0399.6,M,0.0,M,,0000*7C
$GPRMC,090413.000,A,4135.5112,N,00141.2633,E,001.03,0.0,110410,,,E*56
$GPGGA,090414.000,4135.5117,N,00141.2629,E,1,00,,0399.2,M,0.0,M,,0000*71
$GPRMC,090414.000,A,4135.5117,N,00141.2629,E,000.00,0.0,110410,,,E*5D
$GPGGA,090415.000,4135.5119,N,00141.2627,E,1,00,,0398.9,M,0.0,M,,0000*7A
$GPRMC,090415.000,A,4135.5119,N,00141.2627,E,000.00,0.0,110410,,,E*5C
$GPGGA,090416.000,4135.5122,N,00141.2626,E,1,00,,0398.7,M,0.0,M,,0000*7E
$GPRMC,090416.000,A,4135.5122,N,00141.2626,E,000.00,0.0,110410,,,E*56
$GPGGA,090417.000,4135.5124,N,00141.2625,E,1,00,,0398.5,M,0.0,M,,0000*78
$GPRMC,090417.000,A,4135.5124,N,00141.2625,E,000.00,0.0,110410,,,E*52
$GPGGA,090418.000,4135.5124,N,00141.2624,E,1,00,,0398.3,M,0.0,M,,0000*70
$GPRMC,090418.000,A,4135.5124,N,00141.2624,E,000.00,0.0,110410,,,E*5C
$GPGGA,090419.000,4135.5126,N,00141.2623,E,1,00,,0398.1,M,0.0,M,,0000*76
$GPRMC,090419.000,A,4135.5126,N,00141.2623,E,000.00,0.0,110410,,,E*58
$GPGGA,090420.000,4135.5128,N,00141.2623,E,1,00,,0398.0,M,0.0,M,,0000*73
$GPRMC,090420.000,A,4135.5128,N,00141.2623,E,000.00,0.0,110410,,,E*5C
$GPGGA,090421.000,4135.5131,N,00141.2622,E,1,00,,0397.8,M,0.0,M,,0000*7C
$GPRMC,090421.000,A,4135.5131,N,00141.2622,E,000.00,0.0,110410,,,E*54
$GPGGA,090422.000,4135.5133,N,00141.2622,E,1,00,,0397.7,M,0.0,M,,0000*72
$GPRMC,090422.000,A,4135.5133,N,00141.2622,E,000.00,0.0,110410,,,E*55
$GPGGA,090423.000,4135.5135,N,00141.2621,E,1,00,,0397.6,M,0.0,M,,0000*77
$GPRMC,090423.000,A,4135.5135,N,00141.2621,E,000.00,0.0,110410,,,E*51
$GPGGA,090424.000,4135.5138,N,00141.2621,E,1,00,,0397.5,M,0.0,M,,0000*7E
$GPRMC,090424.000,A,4135.5138,N,00141.2621,E,000.00,0.0,110410,,,E*5B
$GPGGA,090425.000,4135.5138,N,00141.2619,E,1,00,,0397.4,M,0.0,M,,0000*75
$GPRMC,090425.000,A,4135.5138,N,00141.2619,E,000.00,0.0,110410,,,E*51
$GPGGA,090426.000,4135.5140,N,00141.2618,E,1,00,,0397.3,M,0.0,M,,0000*7F
$GPRMC,090426.000,A,4135.5140,N,00141.2618,E,000.00,0.0,110410,,,E*5C
$GPGGA,090427.000,4135.5140,N,00141.2618,E,1,00,,0397.2,M,0.0,M,,0000*7F
$GPRMC,090427.000,A,4135.5140,N,00141.2618,E,000.00,0.0,110410,,,E*5D
$GPGGA,090428.000,4135.5142,N,00141.2617,E,1,00,,0397.2,M,0.0,M,,0000*7D
$GPRMC,090428.000,A,4135.5142,N,00141.2617,E,000.00,0.0,110410,,,E*5F
$GPGGA,090429.000,4135.5142,N,00141.2617,E,1,00,,0397.1,M,0.0,M,,0000*7F
$GPRMC,090429.000,A,4135.5142,N,00141.2617,E,000.00,0.0,110410,,,E*5E
$GPGGA,090430.000,4135.5145,N,00141.2617,E,1,00,,0397.0,M,0.0,M,,0000*71
$GPRMC,090430.000,A,4135.5145,N,00141.2617,E,000.00,0.0,110410,,,E*51
$GPGGA,090431.000,4135.5145,N,00141.2617,E,1,00,,0396.9,M,0.0,M,,0000*78
$GPRMC,090431.000,A,4135.5145,N,00141.2617,E,000.00,0.0,110410,,,E*50
$GPGGA,090432.000,4135.5145,N,00141.2617,E,1,00,,0396.8,M,0.0,M,,0000*7A
$GPRMC,090432.000,A,4135.5145,N,00141.2617,E,000.00,0.0,110410,,,E*53
$GPGGA,090433.000,4135.5145,N,00141.2616,E,1,00,,0396.7,M,0.0,M,,0000*75
$GPRMC,090433.000,A,4135.5145,N,00141.2616,E,000.00,0.0,110410,,,E*53
$GPGGA,090434.000,4135.5147,N,00141.2617,E,1,00,,0396.7,M,0.0,M,,0000*71
$GPRMC,090434.000,A,4135.5147,N,00141.2617,E,000.00,0.0,110410,,,E*57
$GPGGA,090435.000,4135.5147,N,00141.2618,E,1,00,,0396.6,M,0.0,M,,0000*7E
$GPRMC,090435.000,A,4135.5147,N,00141.2618,E,000.00,0.0,110410,,,E*59
$GPGGA,090436.000,4135.5149,N,00141.2618,E,1,00,,0396.6,M,0.0,M,,0000*73
$GPRMC,090436.000,A,4135.5149,N,00141.2618,E,000.00,0.0,110410,,,E*54
$GPGGA,090437.000,4135.5149,N,00141.2618,E,1,00,,0396.4,M,0.0,M,,0000*70
$GPRMC,090437.000,A,4135.5149,N,00141.2618,E,000.00,0.0,110410,,,E*55
$GPGGA,090438.000,4135.5156,N,00141.2619,E,1,00,,0396.3,M,0.0,M,,0000*77
$GPRMC,090438.000,A,4135.5156,N,00141.2619,E,001.15,0.0,110410,,,E*50
$GPGGA,090439.000,4135.5170,N,00141.2626,E,1,00,,0396.2,M,0.0,M,,0000*7F
$GPRMC,090439.000,A,4135.5170,N,00141.2626,E,006.40,0.0,110410,,,E*5E
$GPGGA,090440.000,4135.5186,N,00141.2642,E,1,00,,0396.2,M,0.0,M,,0000*7A
$GPRMC,090440.000,A,4135.5186,N,00141.2642,E,008.49,0.0,110410,,,E*5C
$GPGGA,090441.000,4135.5199,N,00141.2669,E,1,00,,0396.1,M,0.0,M,,0000*7F
$GPRMC,090441.000,A,4135.5199,N,00141.2669,E,009.40,0.0,110410,,,E*52
$GPGGA,090442.000,4135.5211,N,00141.2702,E,1,00,,0396.0,M,0.0,M,,0000*72
$GPRMC,090442.000,A,4135.5211,N,00141.2702,E,009.62,0.0,110410,,,E*5E
$GPGGA,090443.000,4135.5215,N,00141.2737,E,1,00,,0396.0,M,0.0,M,,0000*71
$GPRMC,090443.000,A,4135.5215,N,00141.2737,E,009.68,0.0,110410,,,E*57
$GPGGA,090444.000,4135.5215,N,00141.2773,E,1,00,,0395.9,M,0.0,M,,0000*7C
$GPRMC,090444.000,A,4135.5215,N,00141.2773,E,009.44,0.0,110410,,,E*5E
$GPGGA,090445.000,4135.5220,N,00141.2807,E,1,00,,0396.0,M,0.0,M,,0000*7D
$GPRMC,090445.000,A,4135.5220,N,00141.2807,E,009.12,0.0,110410,,,E*56
$GPGGA,090446.000,4135.5222,N,00141.2839,E,1,00,,0396.1,M,0.0,M,,0000*70
$GPRMC,090446.000,A,4135.5222,N,00141.2839,E,008.41,0.0,110410,,,E*5D
$GPGGA,090447.000,4135.5225,N,00141.2865,E,1,00,,0396.1,M,0.0,M,,0000*7F
$GPRMC,090447.000,A,4135.5225,N,00141.2865,E,007.63,0.0,110410,,,E*5D
$GPGGA,090448.000,4135.5227,N,00141.2875,E,1,00,,0396.0,M,0.0,M,,0000*72
$GPRMC,090448.000,A,4135.5227,N,00141.2875,E,004.63,0.0,110410,,,E*52
$GPGGA,090449.000,4135.5227,N,00141.2875,E,1,00,,0396.0,M,0.0,M,,0000*73
$GPRMC,090449.000,A,4135.5227,N,00141.2875,E,001.85,0.0,110410,,,E*5E
$GPGGA,090450.000,4135.5227,N,00141.2874,E,1,00,,0396.0,M,0.0,M,,0000*7A
$GPRMC,090450.000,A,4135.5227,N,00141.2874,E,000.00,0.0,110410,,,E*5B
$GPGGA,090451.000,4135.5227,N,00141.2874,E,1,00,,0395.9,M,0.0,M,,0000*71
$GPRMC,090451.000,A,4135.5227,N,00141.2874,E,000.00,0.0,110410,,,E*5A
$GPGGA,090452.000,4135.5227,N,00141.2874,E,1,00,,0395.9,M,0.0,M,,0000*72
$GPRMC,090452.000,A,4135.5227,N,00141.2874,E,000.00,0.0,110410,,,E*59
$GPGGA,090453.000,4135.5227,N,00141.2874,E,1,00,,0395.9,M,0.0,M,,0000*73
$GPRMC,090453.000,A,4135.5227,N,00141.2874,E,000.00,0.0,110410,,,E*58
$GPGGA,090454.000,4135.5227,N,00141.2874,E,1,00,,0395.9,M,0.0,M,,0000*74
$GPRMC,090454.000,A,4135.5227,N,00141.2874,E,000.00,0.0,110410,,,E*5F
$GPGGA,090455.000,4135.5227,N,00141.2874,E,1,00,,0395.9,M,0.0,M,,0000*75
$GPRMC,090455.000,A,4135.5227,N,00141.2874,E,000.00,0.0,110410,,,E*5E
$GPGGA,090456.000,4135.5227,N,00141.2873,E,1,00,,0396.0,M,0.0,M,,0000*7B
$GPRMC,090456.000,A,4135.5227,N,00141.2873,E,000.00,0.0,110410,,,E*5A
$GPGGA,090457.000,4135.5227,N,00141.2873,E,1,00,,0396.0,M,0.0,M,,0000*7A
$GPRMC,090457.000,A,4135.5227,N,00141.2873,E,000.00,0.0,110410,,,E*5B
$GPGGA,090458.000,4135.5227,N,00141.2873,E,1,00,,0396.0,M,0.0,M,,0000*75
$GPRMC,090458.000,A,4135.5227,N,00141.2873,E,000.00,0.0,110410,,,E*54
$GPGGA,090459.000,4135.5227,N,00141.2873,E,1,00,,0396.0,M,0.0,M,,0000*74
$GPRMC,090459.000,A,4135.5227,N,00141.2873,E,000.00,0.0,110410,,,E*55
$GPGGA,090500.000,4135.5227,N,00141.2872,E,1,00,,0396.0,M,0.0,M,,0000*78
$GPRMC,090500.000,A,4135.5227,N,00141.2872,E,000.00,0.0,110410,,,E*59
$GPGGA,090501.000,4135.5227,N,00141.2874,E,1,00,,0396.0,M,0.0,M,,0000*7F
$GPRMC,090501.000,A,4135.5227,N,00141.2874,E,000.00,0.0,110410,,,E*5E
$GPGGA,090502.000,4135.5229,N,00141.2886,E,1,00,,0396.0,M,0.0,M,,0000*7F
$GPRMC,090502.000,A,4135.5229,N,00141.2886,E,005.42,0.0,110410,,,E*5D
$GPGGA,090503.000,4135.5234,N,00141.2916,E,1,00,,0395.8,M,0.0,M,,0000*71
$GPRMC,090503.000,A,4135.5234,N,00141.2916,E,010.71,0.0,110410,,,E*5C
$GPGGA,090504.000,4135.5241,N,00141.2967,E,1,00,,0395.5,M,0.0,M,,0000*7F
$GPRMC,090504.000,A,4135.5241,N,00141.2967,E,016.81,0.0,110410,,,E*56
$GPGGA,090505.000,4135.5250,N,00141.3042,E,1,00,,0395.2,M,0.0,M,,0000*76
$GPRMC,090505.000,A,4135.5250,N,00141.3042,E,023.26,0.0,110410,,,E*53
$GPGGA,090506.000,4135.5257,N,00141.3134,E,1,00,,0395.0,M,0.0,M,,0000*70
$GPRMC,090506.000,A,4135.5257,N,00141.3134,E,026.42,0.0,110410,,,E*50
$GPGGA,090507.000,4135.5273,N,00141.3235,E,1,00,,0394.9,M,0.0,M,,0000*7D
$GPRMC,090507.000,A,4135.5273,N,00141.3235,E,028.16,0.0,110410,,,E*5A
$GPGGA,090508.000,4135.5286,N,00141.3343,E,1,00,,0394.7,M,0.0,M,,0000*76
$GPRMC,090508.000,A,4135.5286,N,00141.3343,E,030.51,0.0,110410,,,E*55
$GPGGA,090509.000,4135.5307,N,00141.3459,E,1,00,,0394.4,M,0.0,M,,0000*70
$GPRMC,090509.000,A,4135.5307,N,00141.3459,E,032.89,0.0,110410,,,E*57
$GPGGA,090510.000,4135.5328,N,00141.3586,E,1,00,,0394.1,M,0.0,M,,0000*73
$GPRMC,090510.000,A,4135.5328,N,00141.3586,E,036.59,0.0,110410,,,E*58
$GPGGA,090511.000,4135.5350,N,00141.3728,E,1,00,,0393.7,M,0.0,M,,0000*7A
$GPRMC,090511.000,A,4135.5350,N,00141.3728,E,040.11,0.0,110410,,,E*5D
$GPGGA,090512.000,4135.5373,N,00141.3884,E,1,00,,0393.4,M,0.0,M,,0000*72
$GPRMC,090512.000,A,4135.5373,N,00141.3884,E,044.94,0.0,110410,,,E*5F
$GPGGA,090513.000,4135.5399,N,00141.4057,E,1,00,,0393.0,M,0.0,M,,0000*72
$GPRMC,090513.000,A,4135.5399,N,00141.4057,E,049.05,0.0,110410,,,E*5E
$GPGGA,090514.000,4135.5431,N,00141.4241,E,1,00,,0392.5,M,0.0,M,,0000*71
$GPRMC,090514.000,A,4135.5431,N,00141.4241,E,051.44,0.0,110410,,,E*55
$GPGGA,090515.000,4135.5463,N,00141.4434,E,1,00,,0392.1,M,0.0,M,,0000*77
$GPRMC,090515.000,A,4135.5463,N,00141.4434,E,054.22,0.0,110410,,,E*52
$GPGGA,090516.000,4135.5492,N,00141.4627,E,1,00,,0391.6,M,0.0,M,,0000*7E
$GPRMC,090516.000,A,4135.5492,N,00141.4627,E,051.21,0.0,110410,,,E*59
$GPGGA,090517.000,4135.5518,N,00141.4808,E,1,00,,0391.2,M,0.0,M,,0000*7B
$GPRMC,090517.000,A,4135.5518,N,00141.4808,E,047.34,0.0,110410,,,E*5B
$GPGGA,090518.000,4135.5531,N,00141.4976,E,1,00,,0390.8,M,0.0,M,,0000*7C
$GPRMC,090518.000,A,4135.5531,N,00141.4976,E,043.45,0.0,110410,,,E*55
$GPGGA,090519.000,4135.5534,N,00141.5132,E,1,00,,0390.2,M,0.0,M,,0000*7B
$GPRMC,090519.000,A,4135.5534,N,00141.5132,E,040.05,0.0,110410,,,E*5F
$GPGGA,090520.000,4135.5513,N,00141.5274,E,1,00,,0389.6,M,0.0,M,,0000*79
$GPRMC,090520.000,A,4135.5513,N,00141.5274,E,038.27,0.0,110410,,,E*5E
$GPGGA,090521.000,4135.5463,N,00141.5395,E,1,00,,0389.3,M,0.0,M,,0000*75
$GPRMC,090521.000,A,4135.5463,N,00141.5395,E,037.08,0.0,110410,,,E*55
$GPGGA,090522.000,4135.5383,N,00141.5486,E,1,00,,0389.5,M,0.0,M,,0000*7C
$GPRMC,090522.000,A,4135.5383,N,00141.5486,E,038.68,0.0,110410,,,E*53
$GPGGA,090523.000,4135.5275,N,00141.5542,E,1,00,,0390.1,M,0.0,M,,0000*70
$GPRMC,090523.000,A,4135.5275,N,00141.5542,E,043.67,0.0,110410,,,E*50
$GPGGA,090524.000,4135.5142,N,00141.5579,E,1,00,,0390.9,M,0.0,M,,0000*70
$GPRMC,090524.000,A,4135.5142,N,00141.5579,E,051.46,0.0,110410,,,E*58
$GPGGA,090525.000,4135.4989,N,00141.5618,E,1,00,,0393.5,M,0.0,M,,0000*74
$GPRMC,090525.000,A,4135.4989,N,00141.5618,E,059.71,0.0,110410,,,E*5F
$GPGGA,090526.000,4135.4822,N,00141.5679,E,1,00,,0396.3,M,0.0,M,,0000*73
$GPRMC,090526.000,A,4135.4822,N,00141.5679,E,063.92,0.0,110410,,,E*5F
$GPGGA,090527.000,4135.4648,N,00141.5764,E,1,00,,0399.4,M,0.0,M,,0000*75
$GPRMC,090527.000,A,4135.4648,N,00141.5764,E,067.70,0.0,110410,,,E*59
$GPGGA,090528.000,4135.4474,N,00141.5863,E,1,00,,0402.1,M,0.0,M,,0000*7F
$GPRMC,090528.000,A,4135.4474,N,00141.5863,E,065.95,0.0,110410,,,E*5A
$GPGGA,090529.000,4135.4309,N,00141.5956,E,1,00,,0404.7,M,0.0,M,,0000*74
$GPRMC,090529.000,A,4135.4309,N,00141.5956,E,062.09,0.0,110410,,,E*53
$GPGGA,090530.000,4135.4151,N,00141.6023,E,1,00,,0409.8,M,0.0,M,,0000*79
$GPRMC,090530.000,A,4135.4151,N,00141.6023,E,057.58,0.0,110410,,,E*5E
$GPGGA,090531.000,4135.4000,N,00141.6046,E,1,00,,0412.6,M,0.0,M,,0000*7A
$GPRMC,090531.000,A,4135.4000,N,00141.6046,E,052.14,0.0,110410,,,E*54
$GPGGA,090532.000,4135.3856,N,00141.6013,E,1,00,,0416.1,M,0.0,M,,0000*76
$GPRMC,090532.000,A,4135.3856,N,00141.6013,E,052.72,0.0,110410,,,E*5B
$GPGGA,090533.000,4135.3716,N,00141.5929,E,1,00,,0419.3,M,0.0,M,,0000*72
$GPRMC,090533.000,A,4135.3716,N,00141.5929,E,056.79,0.0,110410,,,E*5D
$GPGGA,090534.000,4135.3574,N,00141.5805,E,1,00,,0422.2,M,0.0,M,,0000*75
$GPRMC,090534.000,A,4135.3574,N,00141.5805,E,062.68,0.0,110410,,,E*54
$GPGGA,090535.000,4135.3428,N,00141.5655,E,1,00,,0424.7,M,0.0,M,,0000*74
$GPRMC,090535.000,A,4135.3428,N,00141.5655,E,068.95,0.0,110410,,,E*5E
$GPGGA,090536.000,4135.3265,N,00141.5488,E,1,00,,0427.2,M,0.0,M,,0000*7C
$GPRMC,090536.000,A,4135.3265,N,00141.5488,E,075.29,0.0,110410,,,E*5B
$GPGGA,090537.000,4135.3091,N,00141.5306,E,1,00,,0429.4,M,0.0,M,,0000*7D
$GPRMC,090537.000,A,4135.3091,N,00141.5306,E,081.81,0.0,110410,,,E*5B
$GPGGA,090538.000,4135.2908,N,00141.5114,E,1,00,,0431.4,M,0.0,M,,0000*72
$GPRMC,090538.000,A,4135.2908,N,00141.5114,E,084.26,0.0,110410,,,E*55
$GPGGA,090539.000,4135.2730,N,00141.4925,E,1,00,,0433.1,M,0.0,M,,0000*7A
$GPRMC,090539.000,A,4135.2730,N,00141.4925,E,077.71,0.0,110410,,,E*54
$GPGGA,090540.000,4135.2574,N,00141.4742,E,1,00,,0434.5,M,0.0,M,,0000*7A
$GPRMC,090540.000,A,4135.2574,N,00141.4742,E,070.14,0.0,110410,,,E*53
$GPGGA,090541.000,4135.2453,N,00141.4553,E,1,00,,0435.3,M,0.0,M,,0000*7A
$GPRMC,090541.000,A,4135.2453,N,00141.4553,E,063.69,0.0,110410,,,E*5C
$GPGGA,090542.000,4135.2373,N,00141.4354,E,1,00,,0435.6,M,0.0,M,,0000*78
$GPRMC,090542.000,A,4135.2373,N,00141.4354,E,058.42,0.0,110410,,,E*5A
$GPGGA,090543.000,4135.2334,N,00141.4149,E,1,00,,0435.5,M,0.0,M,,0000*77
$GPRMC,090543.000,A,4135.2334,N,00141.4149,E,055.88,0.0,110410,,,E*5D
$GPGGA,090544.000,4135.2338,N,00141.3939,E,1,00,,0435.1,M,0.0,M,,0000*70
$GPRMC,090544.000,A,4135.2338,N,00141.3939,E,057.17,0.0,110410,,,E*5A
$GPGGA,090545.000,4135.2380,N,00141.3722,E,1,00,,0434.4,M,0.0,M,,0000*72
$GPRMC,090545.000,A,4135.2380,N,00141.3722,E,062.16,0.0,110410,,,E*5B
$GPGGA,090546.000,4135.2446,N,00141.3505,E,1,00,,0433.5,M,0.0,M,,0000*7D
$GPRMC,090546.000,A,4135.2446,N,00141.3505,E,063.25,0.0,110410,,,E*53
$GPGGA,090547.000,4135.2522,N,00141.3298,E,1,00,,0432.7,M,0.0,M,,0000*7F
$GPRMC,090547.000,A,4135.2522,N,00141.3298,E,059.44,0.0,110410,,,E*5C
$GPGGA,090548.000,4135.2592,N,00141.3106,E,1,00,,0431.9,M,0.0,M,,0000*72
$GPRMC,090548.000,A,4135.2592,N,00141.3106,E,054.47,0.0,110410,,,E*52
$GPGGA,090549.000,4135.2654,N,00141.2931,E,1,00,,0431.3,M,0.0,M,,0000*7D
$GPRMC,090549.000,A,4135.2654,N,00141.2931,E,048.64,0.0,110410,,,E*5B
$GPGGA,090550.000,4135.2709,N,00141.2778,E,1,00,,0430.8,M,0.0,M,,0000*75
$GPRMC,090550.000,A,4135.2709,N,00141.2778,E,041.31,0.0,110410,,,E*50
$GPGGA,090551.000,4135.2750,N,00141.2645,E,1,00,,0430.0,M,0.0,M,,0000*7F
$GPRMC,090551.000,A,4135.2750,N,00141.2645,E,035.38,0.0,110410,,,E*58
$GPGGA,090552.000,4135.2771,N,00141.2528,E,1,00,,0429.3,M,0.0,M,,0000*7C
$GPRMC,090552.000,A,4135.2771,N,00141.2528,E,029.51,0.0,110410,,,E*52
$GPGGA,090553.000,4135.2760,N,00141.2430,E,1,00,,0428.7,M,0.0,M,,0000*70
$GPRMC,090553.000,A,4135.2760,N,00141.2430,E,025.83,0.0,110410,,,E*58
$GPGGA,090554.000,4135.2714,N,00141.2363,E,1,00,,0428.4,M,0.0,M,,0000*76
$GPRMC,090554.000,A,4135.2714,N,00141.2363,E,024.48,0.0,110410,,,E*5B
$GPGGA,090555.000,4135.2647,N,00141.2341,E,1,00,,0428.6,M,0.0,M,,0000*72
$GPRMC,090555.000,A,4135.2647,N,00141.2341,E,027.54,0.0,110410,,,E*53
$GPGGA,090556.000,4135.2560,N,00141.2364,E,1,00,,0428.7,M,0.0,M,,0000*71
$GPRMC,090556.000,A,4135.2560,N,00141.2364,E,035.86,0.0,110410,,,E*5D
$GPGGA,090557.000,4135.2453,N,00141.2424,E,1,00,,0429.1,M,0.0,M,,0000*75
$GPRMC,090557.000,A,4135.2453,N,00141.2424,E,046.31,0.0,110410,,,E*56
$GPGGA,090558.000,4135.2322,N,00141.2507,E,1,00,,0429.9,M,0.0,M,,0000*73
$GPRMC,090558.000,A,4135.2322,N,00141.2507,E,057.71,0.0,110410,,,E*5C
$GPGGA,090559.000,4135.2158,N,00141.2605,E,1,00,,0431.3,M,0.0,M,,0000*7F
$GPRMC,090559.000,A,4135.2158,N,00141.2605,E,068.46,0.0,110410,,,E*5B
$GPGGA,090600.000,4135.1972,N,00141.2711,E,1,00,,0433.5,M,0.0,M,,0000*73
$GPRMC,090600.000,A,4135.1972,N,00141.2711,E,074.45,0.0,110410,,,E*5D
$GPGGA,090601.000,4135.1787,N,00141.2818,E,1,00,,0435.8,M,0.0,M,,0000*7B
$GPRMC,090601.000,A,4135.1787,N,00141.2818,E,069.67,0.0,110410,,,E*52
$GPGGA,090602.000,4135.1617,N,00141.2924,E,1,00,,0438.1,M,0.0,M,,0000*7A
$GPRMC,090602.000,A,4135.1617,N,00141.2924,E,063.06,0.0,110410,,,E*5A
$GPGGA,090603.000,4135.1478,N,00141.3041,E,1,00,,0440.2,M,0.0,M,,0000*77
$GPRMC,090603.000,A,4135.1478,N,00141.3041,E,056.61,0.0,110410,,,E*5C
$GPGGA,090604.000,4135.1368,N,00141.3180,E,1,00,,0442.1,M,0.0,M,,0000*7B
$GPRMC,090604.000,A,4135.1368,N,00141.3180,E,051.65,0.0,110410,,,E*52
$GPGGA,090605.000,4135.1297,N,00141.3342,E,1,00,,0443.6,M,0.0,M,,0000*71
$GPRMC,090605.000,A,4135.1297,N,00141.3342,E,049.76,0.0,110410,,,E*55
$GPGGA,090606.000,4135.1263,N,00141.3521,E,1,00,,0445.0,M,0.0,M,,0000*7A
$GPRMC,090606.000,A,4135.1263,N,00141.3521,E,049.54,0.0,110410,,,E*5E
$GPGGA,090607.000,4135.1267,N,00141.3708,E,1,00,,0446.4,M,0.0,M,,0000*71
$GPRMC,090607.000,A,4135.1267,N,00141.3708,E,050.97,0.0,110410,,,E*55
$GPGGA,090608.000,4135.1311,N,00141.3894,E,1,00,,0447.2,M,0.0,M,,0000*73
$GPRMC,090608.000,A,4135.1311,N,00141.3894,E,053.77,0.0,110410,,,E*5D
$GPGGA,090609.000,4135.1393,N,00141.4074,E,1,00,,0447.7,M,0.0,M,,0000*7C
$GPRMC,090609.000,A,4135.1393,N,00141.4074,E,059.31,0.0,110410,,,E*5F
$GPGGA,090610.000,4135.1514,N,00141.4249,E,1,00,,0448.2,M,0.0,M,,0000*7B
$GPRMC,090610.000,A,4135.1514,N,00141.4249,E,066.70,0.0,110410,,,E*5B
$GPGGA,090611.000,4135.1665,N,00141.4425,E,1,00,,0448.7,M,0.0,M,,0000*76
$GPRMC,090611.000,A,4135.1665,N,00141.4425,E,075.82,0.0,110410,,,E*5C
$GPGGA,090612.000,4135.1844,N,00141.4613,E,1,00,,0448.4,M,0.0,M,,0000*7C
$GPRMC,090612.000,A,4135.1844,N,00141.4613,E,085.09,0.0,110410,,,E*59
$GPGGA,090613.000,4135.2043,N,00141.4818,E,1,00,,0448.0,M,0.0,M,,0000*70
$GPRMC,090613.000,A,4135.2043,N,00141.4818,E,092.77,0.0,110410,,,E*5E
$GPGGA,090614.000,4135.2258,N,00141.5040,E,1,00,,0447.4,M,0.0,M,,0000*70
$GPRMC,090614.000,A,4135.2258,N,00141.5040,E,098.87,0.0,110410,,,E*50
$GPGGA,090615.000,4135.2480,N,00141.5276,E,1,00,,0446.8,M,0.0,M,,0000*78
$GPRMC,090615.000,A,4135.2480,N,00141.5276,E,103.87,0.0,110410,,,E*56
$GPGGA,090616.000,4135.2714,N,00141.5523,E,1,00,,0446.3,M,0.0,M,,0000*79
$GPRMC,090616.000,A,4135.2714,N,00141.5523,E,107.62,0.0,110410,,,E*53
$GPGGA,090617.000,4135.2952,N,00141.5774,E,1,00,,0445.6,M,0.0,M,,0000*72
$GPRMC,090617.000,A,4135.2952,N,00141.5774,E,106.90,0.0,110410,,,E*52
$GPGGA,090618.000,4135.3178,N,00141.6015,E,1,00,,0445.0,M,0.0,M,,0000*79
$GPRMC,090618.000,A,4135.3178,N,00141.6015,E,098.75,0.0,110410,,,E*52
$GPGGA,090619.000,4135.3380,N,00141.6234,E,1,00,,0444.6,M,0.0,M,,0000*7B
$GPRMC,090619.000,A,4135.3380,N,00141.6234,E,087.25,0.0,110410,,,E*5C
$GPGGA,090620.000,4135.3558,N,00141.6425,E,1,00,,0444.1,M,0.0,M,,0000*73
$GPRMC,090620.000,A,4135.3558,N,00141.6425,E,075.03,0.0,110410,,,E*5A
$GPGGA,090621.000,4135.3709,N,00141.6588,E,1,00,,0443.7,M,0.0,M,,0000*73
$GPRMC,090621.000,A,4135.3709,N,00141.6588,E,064.09,0.0,110410,,,E*51
$GPGGA,090622.000,4135.3840,N,00141.6727,E,1,00,,0443.3,M,0.0,M,,0000*71
$GPRMC,090622.000,A,4135.3840,N,00141.6727,E,054.39,0.0,110410,,,E*57
$GPGGA,090623.000,4135.3950,N,00141.6845,E,1,00,,0443.0,M,0.0,M,,0000*78
$GPRMC,090623.000,A,4135.3950,N,00141.6845,E,047.18,0.0,110410,,,E*5C
$GPGGA,090624.000,4135.4050,N,00141.6937,E,1,00,,0442.5,M,0.0,M,,0000*71
$GPRMC,090624.000,A,4135.4050,N,00141.6937,E,039.93,0.0,110410,,,E*5B
$GPGGA,090625.000,4135.4147,N,00141.6989,E,1,00,,0441.5,M,0.0,M,,0000*71
$GPRMC,090625.000,A,4135.4147,N,00141.6989,E,035.38,0.0,110410,,,E*55
$GPGGA,090626.000,4135.4240,N,00141.6988,E,1,00,,0440.4,M,0.0,M,,0000*77
$GPRMC,090626.000,A,4135.4240,N,00141.6988,E,033.26,0.0,110410,,,E*5A
$GPGGA,090627.000,4135.4321,N,00141.6931,E,1,00,,0439.4,M,0.0,M,,0000*7C
$GPRMC,090627.000,A,4135.4321,N,00141.6931,E,033.81,0.0,110410,,,E*52
$GPGGA,090628.000,4135.4375,N,00141.6825,E,1,00,,0438.4,M,0.0,M,,0000*77
$GPRMC,090628.000,A,4135.4375,N,00141.6825,E,036.65,0.0,110410,,,E*57
$GPGGA,090629.000,4135.4394,N,00141.6679,E,1,00,,0437.2,M,0.0,M,,0000*77
$GPRMC,090629.000,A,4135.4394,N,00141.6679,E,042.98,0.0,110410,,,E*5F
$GPGGA,090630.000,4135.4375,N,00141.6502,E,1,00,,0435.5,M,0.0,M,,0000*7A
$GPRMC,090630.000,A,4135.4375,N,00141.6502,E,052.74,0.0,110410,,,E*54
$GPGGA,090631.000,4135.4321,N,00141.6293,E,1,00,,0433.4,M,0.0,M,,0000*72
$GPRMC,090631.000,A,4135.4321,N,00141.6293,E,064.86,0.0,110410,,,E*53
$GPGGA,090632.000,4135.4238,N,00141.6054,E,1,00,,0430.9,M,0.0,M,,0000*7F
$GPRMC,090632.000,A,4135.4238,N,00141.6054,E,074.82,0.0,110410,,,E*55
$GPGGA,090633.000,4135.4137,N,00141.5796,E,1,00,,0428.2,M,0.0,M,,0000*7A
$GPRMC,090633.000,A,4135.4137,N,00141.5796,E,080.78,0.0,110410,,,E*5C
$GPGGA,090634.000,4135.4028,N,00141.5539,E,1,00,,0424.7,M,0.0,M,,0000*7C
$GPRMC,090634.000,A,4135.4028,N,00141.5539,E,077.00,0.0,110410,,,E*54
$GPGGA,090635.000,4135.3929,N,00141.5297,E,1,00,,0422.3,M,0.0,M,,0000*73
$GPRMC,090635.000,A,4135.3929,N,00141.5297,E,069.20,0.0,110410,,,E*54
$GPGGA,090636.000,4135.3847,N,00141.5076,E,1,00,,0420.5,M,0.0,M,,0000*70
$GPRMC,090636.000,A,4135.3847,N,00141.5076,E,061.69,0.0,110410,,,E*56
$GPGGA,090637.000,4135.3780,N,00141.4876,E,1,00,,0418.8,M,0.0,M,,0000*7A
$GPRMC,090637.000,A,4135.3780,N,00141.4876,E,055.09,0.0,110410,,,E*5B
$GPGGA,090638.000,4135.3730,N,00141.4692,E,1,00,,0417.1,M,0.0,M,,0000*7C
$GPRMC,090638.000,A,4135.3730,N,00141.4692,E,048.89,0.0,110410,,,E*5F
$GPGGA,090639.000,4135.3716,N,00141.4519,E,1,00,,0415.5,M,0.0,M,,0000*7F
$GPRMC,090639.000,A,4135.3716,N,00141.4519,E,044.90,0.0,110410,,,E*5E
$GPGGA,090640.000,4135.3741,N,00141.4359,E,1,00,,0414.1,M,0.0,M,,0000*74
$GPRMC,090640.000,A,4135.3741,N,00141.4359,E,043.67,0.0,110410,,,E*5F
$GPGGA,090641.000,4135.3808,N,00141.4218,E,1,00,,0412.8,M,0.0,M,,0000*7C
$GPRMC,090641.000,A,4135.3808,N,00141.4218,E,047.30,0.0,110410,,,E*5E
$GPGGA,090642.000,4135.3915,N,00141.4098,E,1,00,,0411.5,M,0.0,M,,0000*76
$GPRMC,090642.000,A,4135.3915,N,00141.4098,E,052.70,0.0,110410,,,E*5A
$GPGGA,090643.000,4135.4046,N,00141.4001,E,1,00,,0410.0,M,0.0,M,,0000*7B
$GPRMC,090643.000,A,4135.4046,N,00141.4001,E,053.79,0.0,110410,,,E*5B
$GPGGA,090644.000,4135.4179,N,00141.3931,E,1,00,,0408.6,M,0.0,M,,0000*73
$GPRMC,090644.000,A,4135.4179,N,00141.3931,E,048.24,0.0,110410,,,E*5E
$GPGGA,090645.000,4135.4307,N,00141.3902,E,1,00,,0406.9,M,0.0,M,,0000*78
$GPRMC,090645.000,A,4135.4307,N,00141.3902,E,044.84,0.0,110410,,,E*52
$GPGGA,090646.000,4135.4426,N,00141.3928,E,1,00,,0405.3,M,0.0,M,,0000*7E
$GPRMC,090646.000,A,4135.4426,N,00141.3928,E,041.84,0.0,110410,,,E*58
$GPGGA,090647.000,4135.4522,N,00141.4008,E,1,00,,0404.2,M,0.0,M,,0000*76
$GPRMC,090647.000,A,4135.4522,N,00141.4008,E,040.89,0.0,110410,,,E*5C
$GPGGA,090648.000,4135.4591,N,00141.4139,E,1,00,,0403.1,M,0.0,M,,0000*76
$GPRMC,090648.000,A,4135.4591,N,00141.4139,E,045.18,0.0,110410,,,E*55
$GPGGA,090649.000,4135.4630,N,00141.4313,E,1,00,,0401.6,M,0.0,M,,0000*70
$GPRMC,090649.000,A,4135.4630,N,00141.4313,E,052.10,0.0,110410,,,E*58
$GPGGA,090650.000,4135.4650,N,00141.4518,E,1,00,,0400.0,M,0.0,M,,0000*74
$GPRMC,090650.000,A,4135.4650,N,00141.4518,E,057.98,0.0,110410,,,E*5E
$GPGGA,090651.000,4135.4664,N,00141.4724,E,1,00,,0398.5,M,0.0,M,,0000*7C
$GPRMC,090651.000,A,4135.4664,N,00141.4724,E,052.22,0.0,110410,,,E*51
$GPGGA,090652.000,4135.4687,N,00141.4903,E,1,00,,0396.9,M,0.0,M,,0000*7B
$GPRMC,090652.000,A,4135.4687,N,00141.4903,E,045.05,0.0,110410,,,E*57
$GPGGA,090653.000,4135.4737,N,00141.5046,E,1,00,,0395.5,M,0.0,M,,0000*76
$GPRMC,090653.000,A,4135.4737,N,00141.5046,E,040.76,0.0,110410,,,E*54
$GPGGA,090654.000,4135.4822,N,00141.5145,E,1,00,,0394.6,M,0.0,M,,0000*7A
$GPRMC,090654.000,A,4135.4822,N,00141.5145,E,040.12,0.0,110410,,,E*58
$GPGGA,090655.000,4135.4925,N,00141.5191,E,1,00,,0393.7,M,0.0,M,,0000*72
$GPRMC,090655.000,A,4135.4925,N,00141.5191,E,039.65,0.0,110410,,,E*58
$GPGGA,090656.000,4135.5032,N,00141.5175,E,1,00,,0392.9,M,0.0,M,,0000*7A
$GPRMC,090656.000,A,4135.5032,N,00141.5175,E,039.53,0.0,110410,,,E*5A
$GPGGA,090657.000,4135.5128,N,00141.5096,E,1,00,,0392.2,M,0.0,M,,0000*76
$GPRMC,090657.000,A,4135.5128,N,00141.5096,E,042.08,0.0,110410,,,E*5F
$GPGGA,090658.000,4135.5197,N,00141.4964,E,1,00,,0391.5,M,0.0,M,,0000*7C
$GPRMC,090658.000,A,4135.5197,N,00141.4964,E,046.06,0.0,110410,,,E*5B
$GPGGA,090659.000,4135.5236,N,00141.4792,E,1,00,,0390.7,M,0.0,M,,0000*71
$GPRMC,090659.000,A,4135.5236,N,00141.4792,E,050.18,0.0,110410,,,E*5D
$GPGGA,090700.000,4135.5238,N,00141.4589,E,1,00,,0390.3,M,0.0,M,,0000*7E
$GPRMC,090700.000,A,4135.5238,N,00141.4589,E,057.85,0.0,110410,,,E*55
$GPGGA,090701.000,4135.5215,N,00141.4355,E,1,00,,0389.7,M,0.0,M,,0000*7B
$GPRMC,090701.000,A,4135.5215,N,00141.4355,E,067.69,0.0,110410,,,E*5D
$GPGGA,090702.000,4135.5172,N,00141.4091,E,1,00,,0388.8,M,0.0,M,,0000*7F
$GPRMC,090702.000,A,4135.5172,N,00141.4091,E,076.44,0.0,110410,,,E*58
$GPGGA,090703.000,4135.5101,N,00141.3822,E,1,00,,0387.5,M,0.0,M,,0000*7F
$GPRMC,090703.000,A,4135.5101,N,00141.3822,E,076.11,0.0,110410,,,E*5A
$GPGGA,090704.000,4135.5000,N,00141.3570,E,1,00,,0386.1,M,0.0,M,,0000*77
$GPRMC,090704.000,A,4135.5000,N,00141.3570,E,076.90,0.0,110410,,,E*5E
$GPGGA,090705.000,4135.4865,N,00141.3337,E,1,00,,0385.4,M,0.0,M,,0000*7F
$GPRMC,090705.000,A,4135.4865,N,00141.3337,E,079.95,0.0,110410,,,E*5A
$GPGGA,090706.000,4135.4710,N,00141.3129,E,1,00,,0384.7,M,0.0,M,,0000*7E
$GPRMC,090706.000,A,4135.4710,N,00141.3129,E,076.52,0.0,110410,,,E*5D
$GPGGA,090707.000,4135.4561,N,00141.2942,E,1,00,,0384.0,M,0.0,M,,0000*78
$GPRMC,090707.000,A,4135.4561,N,00141.2942,E,069.42,0.0,110410,,,E*53
$GPGGA,090708.000,4135.4442,N,00141.2756,E,1,00,,0383.8,M,0.0,M,,0000*73
$GPRMC,090708.000,A,4135.4442,N,00141.2756,E,062.21,0.0,110410,,,E*59
$GPGGA,090709.000,4135.4366,N,00141.2559,E,1,00,,0384.7,M,0.0,M,,0000*76
$GPRMC,090709.000,A,4135.4366,N,00141.2559,E,056.75,0.0,110410,,,E*52
$GPGGA,090710.000,4135.4339,N,00141.2354,E,1,00,,0386.1,M,0.0,M,,0000*7B
$GPRMC,090710.000,A,4135.4339,N,00141.2354,E,055.60,0.0,110410,,,E*5C
$GPGGA,090711.000,4135.4362,N,00141.2144,E,1,00,,0387.9,M,0.0,M,,0000*7E
$GPRMC,090711.000,A,4135.4362,N,00141.2144,E,058.61,0.0,110410,,,E*5C
$GPGGA,090712.000,4135.4428,N,00141.1934,E,1,00,,0389.8,M,0.0,M,,0000*77
$GPRMC,090712.000,A,4135.4428,N,00141.1934,E,062.75,0.0,110410,,,E*56
$GPGGA,090713.000,4135.4520,N,00141.1736,E,1,00,,0392.0,M,0.0,M,,0000*71
$GPRMC,090713.000,A,4135.4520,N,00141.1736,E,062.53,0.0,110410,,,E*56
$GPGGA,090714.000,4135.4623,N,00141.1559,E,1,00,,0394.0,M,0.0,M,,0000*7B
$GPRMC,090714.000,A,4135.4623,N,00141.1559,E,056.82,0.0,110410,,,E*51
$GPGGA,090715.000,4135.4719,N,00141.1410,E,1,00,,0395.8,M,0.0,M,,0000*77
$GPRMC,090715.000,A,4135.4719,N,00141.1410,E,049.23,0.0,110410,,,E*51
$GPGGA,090716.000,4135.4808,N,00141.1291,E,1,00,,0397.1,M,0.0,M,,0000*7F
$GPRMC,090716.000,A,4135.4808,N,00141.1291,E,042.19,0.0,110410,,,E*50
$GPGGA,090717.000,4135.4902,N,00141.1215,E,1,00,,0397.7,M,0.0,M,,0000*7F
$GPRMC,090717.000,A,4135.4902,N,00141.1215,E,036.32,0.0,110410,,,E*5C
$GPGGA,090718.000,4135.4998,N,00141.1200,E,1,00,,0398.4,M,0.0,M,,0000*7B
$GPRMC,090718.000,A,4135.4998,N,00141.1200,E,033.98,0.0,110410,,,E*51
$GPGGA,090719.000,4135.5083,N,00141.1249,E,1,00,,0399.3,M,0.0,M,,0000*73
$GPRMC,090719.000,A,4135.5083,N,00141.1249,E,034.61,0.0,110410,,,E*5E
$GPGGA,090720.000,4135.5147,N,00141.1356,E,1,00,,0400.4,M,0.0,M,,0000*7F
$GPRMC,090720.000,A,4135.5147,N,00141.1356,E,039.59,0.0,110410,,,E*54
$GPGGA,090721.000,4135.5190,N,00141.1512,E,1,00,,0401.3,M,0.0,M,,0000*74
$GPRMC,090721.000,A,4135.5190,N,00141.1512,E,049.14,0.0,110410,,,E*57
$GPGGA,090722.000,4135.5220,N,00141.1711,E,1,00,,0401.9,M,0.0,M,,0000*74
$GPRMC,090722.000,A,4135.5220,N,00141.1711,E,059.26,0.0,110410,,,E*5D
$GPGGA,090723.000,4135.5247,N,00141.1947,E,1,00,,0402.2,M,0.0,M,,0000*71
$GPRMC,090723.000,A,4135.5247,N,00141.1947,E,067.39,0.0,110410,,,E*53
$GPGGA,090724.000,4135.5275,N,00141.2216,E,1,00,,0401.9,M,0.0,M,,0000*73
$GPRMC,090724.000,A,4135.5275,N,00141.2216,E,076.41,0.0,110410,,,E*56
$GPGGA,090725.000,4135.5300,N,00141.2513,E,1,00,,0401.3,M,0.0,M,,0000*79
$GPRMC,090725.000,A,4135.5300,N,00141.2513,E,082.24,0.0,110410,,,E*5E
$GPGGA,090726.000,4135.5332,N,00141.2834,E,1,00,,0400.5,M,0.0,M,,0000*74
$GPRMC,090726.000,A,4135.5332,N,00141.2834,E,089.65,0.0,110410,,,E*5A
$GPGGA,090727.000,4135.5367,N,00141.3181,E,1,00,,0399.6,M,0.0,M,,0000*77
$GPRMC,090727.000,A,4135.5367,N,00141.3181,E,096.17,0.0,110410,,,E*56
$GPGGA,090728.000,4135.5401,N,00141.3537,E,1,00,,0398.5,M,0.0,M,,0000*74
$GPRMC,090728.000,A,4135.5401,N,00141.3537,E,094.78,0.0,110410,,,E*5C
$GPGGA,090729.000,4135.5433,N,00141.3877,E,1,00,,0397.6,M,0.0,M,,0000*71
$GPRMC,090729.000,A,4135.5433,N,00141.3877,E,088.28,0.0,110410,,,E*5D
$GPGGA,090730.000,4135.5465,N,00141.4194,E,1,00,,0396.7,M,0.0,M,,0000*79
$GPRMC,090730.000,A,4135.5465,N,00141.4194,E,082.04,0.0,110410,,,E*51
$GPGGA,090731.000,4135.5490,N,00141.4481,E,1,00,,0395.8,M,0.0,M,,0000*7F
$GPRMC,090731.000,A,4135.5490,N,00141.4481,E,072.47,0.0,110410,,,E*53
$GPGGA,090732.000,4135.5515,N,00141.4732,E,1,00,,0395.1,M,0.0,M,,0000*72
$GPRMC,090732.000,A,4135.5515,N,00141.4732,E,062.90,0.0,110410,,,E*5C
$GPGGA,090733.000,4135.5531,N,00141.4953,E,1,00,,0394.4,M,0.0,M,,0000*78
$GPRMC,090733.000,A,4135.5531,N,00141.4953,E,056.00,0.0,110410,,,E*5C
$GPGGA,090734.000,4135.5531,N,00141.5150,E,1,00,,0393.5,M,0.0,M,,0000*73
$GPRMC,090734.000,A,4135.5531,N,00141.5150,E,049.74,0.0,110410,,,E*5C
$GPGGA,090735.000,4135.5502,N,00141.5317,E,1,00,,0392.8,M,0.0,M,,0000*7F
$GPRMC,090735.000,A,4135.5502,N,00141.5317,E,044.01,0.0,110410,,,E*53
$GPGGA,090736.000,4135.5431,N,00141.5445,E,1,00,,0392.5,M,0.0,M,,0000*70
$GPRMC,090736.000,A,4135.5431,N,00141.5445,E,042.98,0.0,110410,,,E*57
$GPGGA,090737.000,4135.5321,N,00141.5527,E,1,00,,0392.6,M,0.0,M,,0000*71
$GPRMC,090737.000,A,4135.5321,N,00141.5527,E,047.20,0.0,110410,,,E*53
$GPGGA,090738.000,4135.5177,N,00141.5570,E,1,00,,0394.6,M,0.0,M,,0000*7B
$GPRMC,090738.000,A,4135.5177,N,00141.5570,E,057.86,0.0,110410,,,E*52
$GPGGA,090739.000,4135.5000,N,00141.5613,E,1,00,,0396.5,M,0.0,M,,0000*7C
$GPRMC,090739.000,A,4135.5000,N,00141.5613,E,067.52,0.0,110410,,,E*5E
$GPGGA,090740.000,4135.4806,N,00141.5682,E,1,00,,0399.6,M,0.0,M,,0000*79
$GPRMC,090740.000,A,4135.4806,N,00141.5682,E,074.68,0.0,110410,,,E*5C
$GPGGA,090741.000,4135.4609,N,00141.5781,E,1,00,,0403.2,M,0.0,M,,0000*7B
$GPRMC,090741.000,A,4135.4609,N,00141.5781,E,077.00,0.0,110410,,,E*53
$GPGGA,090742.000,4135.4417,N,00141.5891,E,1,00,,0406.1,M,0.0,M,,0000*7D
$GPRMC,090742.000,A,4135.4417,N,00141.5891,E,069.74,0.0,110410,,,E*5F
$GPGGA,090743.000,4135.4245,N,00141.6005,E,1,00,,0408.7,M,0.0,M,,0000*73
$GPRMC,090743.000,A,4135.4245,N,00141.6005,E,068.48,0.0,110410,,,E*57
$GPGGA,090744.000,4135.4085,N,00141.6056,E,1,00,,0412.0,M,0.0,M,,0000*70
$GPRMC,090744.000,A,4135.4085,N,00141.6056,E,057.37,0.0,110410,,,E*5C
$GPGGA,090745.000,4135.3925,N,00141.6044,E,1,00,,0414.7,M,0.0,M,,0000*77
$GPRMC,090745.000,A,4135.3925,N,00141.6044,E,056.92,0.0,110410,,,E*54
$GPGGA,090746.000,4135.3769,N,00141.5962,E,1,00,,0418.1,M,0.0,M,,0000*76
$GPRMC,090746.000,A,4135.3769,N,00141.5962,E,062.93,0.0,110410,,,E*59
$GPGGA,090747.000,4135.3611,N,00141.5828,E,1,00,,0421.6,M,0.0,M,,0000*7B
$GPRMC,090747.000,A,4135.3611,N,00141.5828,E,070.41,0.0,110410,,,E*55
$GPGGA,090748.000,4135.3439,N,00141.5659,E,1,00,,0424.7,M,0.0,M,,0000*70
$GPRMC,090748.000,A,4135.3439,N,00141.5659,E,078.10,0.0,110410,,,E*56
$GPGGA,090749.000,4135.3261,N,00141.5469,E,1,00,,0427.4,M,0.0,M,,0000*7B
$GPRMC,090749.000,A,4135.3261,N,00141.5469,E,084.73,0.0,110410,,,E*5B
$GPGGA,090750.000,4135.3064,N,00141.5265,E,1,00,,0429.9,M,0.0,M,,0000*7D
$GPRMC,090750.000,A,4135.3064,N,00141.5265,E,090.97,0.0,110410,,,E*51
$GPGGA,090751.000,4135.2863,N,00141.5055,E,1,00,,0431.8,M,0.0,M,,0000*7B
$GPRMC,090751.000,A,4135.2863,N,00141.5055,E,089.67,0.0,110410,,,E*58
$GPGGA,090752.000,4135.2677,N,00141.4849,E,1,00,,0433.2,M,0.0,M,,0000*7F
$GPRMC,090752.000,A,4135.2677,N,00141.4849,E,081.36,0.0,110410,,,E*58
$GPGGA,090753.000,4135.2524,N,00141.4644,E,1,00,,0434.1,M,0.0,M,,0000*7C
$GPRMC,090753.000,A,4135.2524,N,00141.4644,E,073.40,0.0,110410,,,E*53
$GPGGA,090754.000,4135.2416,N,00141.4426,E,1,00,,0434.6,M,0.0,M,,0000*7A
$GPRMC,090754.000,A,4135.2416,N,00141.4426,E,067.27,0.0,110410,,,E*56
$GPGGA,090755.000,4135.2361,N,00141.4193,E,1,00,,0434.4,M,0.0,M,,0000*75
$GPRMC,090755.000,A,4135.2361,N,00141.4193,E,064.82,0.0,110410,,,E*57
$GPGGA,090756.000,4135.2359,N,00141.3948,E,1,00,,0434.3,M,0.0,M,,0000*73
$GPRMC,090756.000,A,4135.2359,N,00141.3948,E,066.65,0.0,110410,,,E*5D
$GPGGA,090757.000,4135.2405,N,00141.3694,E,1,00,,0433.9,M,0.0,M,,0000*7F
$GPRMC,090757.000,A,4135.2405,N,00141.3694,E,073.32,0.0,110410,,,E*5A
$GPGGA,090758.000,4135.2483,N,00141.3438,E,1,00,,0433.1,M,0.0,M,,0000*72
$GPRMC,090758.000,A,4135.2483,N,00141.3438,E,073.35,0.0,110410,,,E*58
$GPGGA,090759.000,4135.2567,N,00141.3199,E,1,00,,0432.2,M,0.0,M,,0000*74
$GPRMC,090759.000,A,4135.2567,N,00141.3199,E,067.74,0.0,110410,,,E*5C
$GPGGA,090800.000,4135.2645,N,00141.2983,E,1,00,,0431.4,M,0.0,M,,0000*73
$GPRMC,090800.000,A,4135.2645,N,00141.2983,E,059.95,0.0,110410,,,E*5C
$GPGGA,090801.000,4135.2711,N,00141.2795,E,1,00,,0430.8,M,0.0,M,,0000*76
$GPRMC,090801.000,A,4135.2711,N,00141.2795,E,050.75,0.0,110410,,,E*53
$GPGGA,090802.000,4135.2760,N,00141.2640,E,1,00,,0430.1,M,0.0,M,,0000*73
$GPRMC,090802.000,A,4135.2760,N,00141.2640,E,039.52,0.0,110410,,,E*55
$GPGGA,090803.000,4135.2780,N,00141.2512,E,1,00,,0429.6,M,0.0,M,,0000*77
$GPRMC,090803.000,A,4135.2780,N,00141.2512,E,031.27,0.0,110410,,,E*54
$GPGGA,090804.000,4135.2764,N,00141.2411,E,1,00,,0429.0,M,0.0,M,,0000*7E
$GPRMC,090804.000,A,4135.2764,N,00141.2411,E,027.60,0.0,110410,,,E*5F
$GPGGA,090805.000,4135.2707,N,00141.2351,E,1,00,,0429.0,M,0.0,M,,0000*79
$GPRMC,090805.000,A,4135.2707,N,00141.2351,E,027.76,0.0,110410,,,E*5F
$GPGGA,090806.000,4135.2618,N,00141.2349,E,1,00,,0429.1,M,0.0,M,,0000*7D
$GPRMC,090806.000,A,4135.2618,N,00141.2349,E,035.61,0.0,110410,,,E*5F
$GPGGA,090807.000,4135.2508,N,00141.2398,E,1,00,,0429.3,M,0.0,M,,0000*70
$GPRMC,090807.000,A,4135.2508,N,00141.2398,E,047.50,0.0,110410,,,E*57
$GPGGA,090808.000,4135.2368,N,00141.2479,E,1,00,,0429.9,M,0.0,M,,0000*7D
$GPRMC,090808.000,A,4135.2368,N,00141.2479,E,059.98,0.0,110410,,,E*5B
$GPGGA,090809.000,4135.2199,N,00141.2578,E,1,00,,0431.0,M,0.0,M,,0000*70
$GPRMC,090809.000,A,4135.2199,N,00141.2578,E,070.85,0.0,110410,,,E*51
$GPGGA,090810.000,4135.2004,N,00141.2689,E,1,00,,0433.0,M,0.0,M,,0000*72
$GPRMC,090810.000,A,4135.2004,N,00141.2689,E,079.37,0.0,110410,,,E*51
$GPGGA,090811.000,4135.1794,N,00141.2810,E,1,00,,0435.4,M,0.0,M,,0000*72
$GPRMC,090811.000,A,4135.1794,N,00141.2810,E,082.05,0.0,110410,,,E*56
$GPGGA,090812.000,4135.1601,N,00141.2939,E,1,00,,0437.4,M,0.0,M,,0000*74
$GPRMC,090812.000,A,4135.1601,N,00141.2939,E,071.97,0.0,110410,,,E*55
$GPGGA,090813.000,4135.1450,N,00141.3087,E,1,00,,0439.5,M,0.0,M,,0000*71
$GPRMC,090813.000,A,4135.1450,N,00141.3087,E,062.77,0.0,110410,,,E*53
$GPGGA,090814.000,4135.1343,N,00141.3262,E,1,00,,0441.0,M,0.0,M,,0000*70
$GPRMC,090814.000,A,4135.1343,N,00141.3262,E,059.20,0.0,110410,,,E*52
$GPGGA,090815.000,4135.1283,N,00141.3462,E,1,00,,0442.7,M,0.0,M,,0000*7E
$GPRMC,090815.000,A,4135.1283,N,00141.3462,E,057.17,0.0,110410,,,E*52
$GPGGA,090816.000,4135.1276,N,00141.3673,E,1,00,,0444.1,M,0.0,M,,0000*75
$GPRMC,090816.000,A,4135.1276,N,00141.3673,E,056.90,0.0,110410,,,E*57
$GPGGA,090817.000,4135.1322,N,00141.3882,E,1,00,,0445.4,M,0.0,M,,0000*70
$GPRMC,090817.000,A,4135.1322,N,00141.3882,E,059.84,0.0,110410,,,E*5C
$GPGGA,090818.000,4135.1414,N,00141.4081,E,1,00,,0446.4,M,0.0,M,,0000*72
$GPRMC,090818.000,A,4135.1414,N,00141.4081,E,065.69,0.0,110410,,,E*51
$GPGGA,090819.000,4135.1549,N,00141.4272,E,1,00,,0446.9,M,0.0,M,,0000*79
$GPRMC,090819.000,A,4135.1549,N,00141.4272,E,073.55,0.0,110410,,,E*5F
$GPGGA,090820.000,4135.1718,N,00141.4462,E,1,00,,0447.1,M,0.0,M,,0000*7B
$GPRMC,090820.000,A,4135.1718,N,00141.4462,E,083.29,0.0,110410,,,E*50
$GPGGA,090821.000,4135.1913,N,00141.4664,E,1,00,,0446.9,M,0.0,M,,0000*72
$GPRMC,090821.000,A,4135.1913,N,00141.4664,E,091.63,0.0,110410,,,E*5D
$GPGGA,090822.000,4135.2126,N,00141.4885,E,1,00,,0446.6,M,0.0,M,,0000*72
$GPRMC,090822.000,A,4135.2126,N,00141.4885,E,098.75,0.0,110410,,,E*5C
$GPGGA,090823.000,4135.2352,N,00141.5124,E,1,00,,0446.0,M,0.0,M,,0000*77
$GPRMC,090823.000,A,4135.2352,N,00141.5124,E,105.04,0.0,110410,,,E*5C
$GPGGA,090824.000,4135.2588,N,00141.5378,E,1,00,,0445.5,M,0.0,M,,0000*7C
$GPRMC,090824.000,A,4135.2588,N,00141.5378,E,109.58,0.0,110410,,,E*54
$GPGGA,090825.000,4135.2831,N,00141.5641,E,1,00,,0444.7,M,0.0,M,,0000*7E
$GPRMC,090825.000,A,4135.2831,N,00141.5641,E,112.58,0.0,110410,,,E*5F
$GPGGA,090826.000,4135.3069,N,00141.5899,E,1,00,,0444.0,M,0.0,M,,0000*75
$GPRMC,090826.000,A,4135.3069,N,00141.5899,E,105.91,0.0,110410,,,E*50
$GPGGA,090827.000,4135.3288,N,00141.6134,E,1,00,,0443.5,M,0.0,M,,0000*76
$GPRMC,090827.000,A,4135.3288,N,00141.6134,E,095.14,0.0,110410,,,E*54
$GPGGA,090828.000,4135.3485,N,00141.6343,E,1,00,,0443.3,M,0.0,M,,0000*76
$GPRMC,090828.000,A,4135.3485,N,00141.6343,E,083.18,0.0,110410,,,E*59
$GPGGA,090829.000,4135.3654,N,00141.6524,E,1,00,,0442.9,M,0.0,M,,0000*75
$GPRMC,090829.000,A,4135.3654,N,00141.6524,E,072.00,0.0,110410,,,E*56
$GPGGA,090830.000,4135.3801,N,00141.6680,E,1,00,,0442.5,M,0.0,M,,0000*72
$GPRMC,090830.000,A,4135.3801,N,00141.6680,E,060.89,0.0,110410,,,E*5F
$GPGGA,090831.000,4135.3925,N,00141.6811,E,1,00,,0442.3,M,0.0,M,,0000*74
$GPRMC,090831.000,A,4135.3925,N,00141.6811,E,052.52,0.0,110410,,,E*58
$GPGGA,090832.000,4135.4032,N,00141.6916,E,1,00,,0441.8,M,0.0,M,,0000*71
$GPRMC,090832.000,A,4135.4032,N,00141.6916,E,043.61,0.0,110410,,,E*55
$GPGGA,090833.000,4135.4137,N,00141.6977,E,1,00,,0441.2,M,0.0,M,,0000*79
$GPRMC,090833.000,A,4135.4137,N,00141.6977,E,038.49,0.0,110410,,,E*51
$GPGGA,090834.000,4135.4238,N,00141.6978,E,1,00,,0440.2,M,0.0,M,,0000*7C
$GPRMC,090834.000,A,4135.4238,N,00141.6978,E,036.59,0.0,110410,,,E*5A
$GPGGA,090835.000,4135.4325,N,00141.6913,E,1,00,,0439.2,M,0.0,M,,0000*73
